unit	site	code	year	winter_site	BCMP_zone	lat	long	elevation	noise floor	noise floor (second measurement)	recorder_input_level	microphone_height	succession	sampling_began	sampling_ended	site_visits_inclusive	valid_SPL_data	valid_completeDay_SPL_range	SPLat_range	SPLat_centerdate	begin_nautical_twilight	begin_civil_twilight	sunrise	sunset	end_civil_twilight	end_nautical_twilight	SPLat_days	SPLatted_by	days_without_overflights	valid_audibility_data	audibility_range	audibility_days	listened_by	equipment_used	weather_data	north_equals	831_serial	preamp_serial	mic_serial	EDIROL_serial	weather_serial	ecoregion	notes
DENA	Seven Mile	7MIL	2001	1	LOW	63.716715	-149.074278	823						12/28/2001	01/07/2002	"12/28/01, 1/04/02, 1/7/02"	1	"12/29/2001 - 12/30/2001, 01/05/2002 - 01/06/2002"																									
DENA	Dunkle Hills	DUNK	2001	1	HIGH	63.28945	-149.45807	902						04/18/2001	08/12/2002	"4/18/01, 5/8/01, 5/13/01, 6/21/01, 7/5/01, 7/10/01, 8/30/01, 9/26/01, 11/28/01, 2/24/02, 3/8/02, 3/20/02, 3/27/02, 4/22/02, 5/7/02, 6/13/02, 8/12/02"	1	"05/14/2001 - 05/19/2001, 06/23/2001 - 06/27/2001, 07/06/2001 - 07/09/2001, 07/11/2001 - 08/17/2001, 08/19/2001 - 09/25/2001, 09/27/2001 - 10/02/2001, 10/04/2001 - 10/11/2001, 11/29/2001 - 12/01/2001, 02/25/2002 - 03/03/2002, 03/09/2002 - 03/19/2002, 03/21/2002 - 03/26/2002, 03/28/2002 - 04/05/2002, 04/08/2002 - 04/21/2002, 04/23/2002 - 05/06/2002, 05/08/2002 - 05/20/2002, 05/22/2002 - 05/25/2002, 05/27/2002 - 05/29/2002, 05/31/2002 - 06/02/2002, 06/14/2002 - 08/11/2002"																									
DENA	Savage River	SAVR	2001	0	ROAD	63.74113	-149.29087	785						07/26/2001	08/12/2001	"7/26/01, 7/31/01, 8/6/01, 8/12/01"	1	"08/01/2001 - 08/02/2001, 08/07/2001 - 08/11/2001"																									
DENA	Teklanika Gravel Pit	TEKP	2001	0	ROAD	63.69383	-149.56005	765						08/11/2001	09/05/2001	"8/11/01, 8/29/01, 9/5/01"	1	08/30/2001 - 09/04/2001																									
DENA	Toklat Spur Road	TOKL	2001	0	ROAD	63.5255	-150.04473	909							08/13/2001	"7/31/01, 8/6/01, 8/13/01"	1	08/01/2001 - 08/04/2001																									
DENA	Toe of the Tokositna	TOKO	2001	0	VERY HIGH	62.665	-150.78825	256						07/17/2001	09/18/2001	"7/17/01, 8/7/01, 8/27/01, 9/18/01"	1	"08/08/2001 - 08/26/2001, 08/28/2001 - 08/29/2001"										Davyd Betchkal															
DENA	Wonder Lake Water Tank	WOND	2001	0	ROAD	63.45296	-150.87435	668						08/13/2001	08/29/2001	"8/13/01, 8/29/01"	1	"08/14/2001 - 08/16/2001, 08/19/2001 - 08/21/2001"																									
YUCH	Charley River	CHRI	2001	0	na	64.8187	-143.4415	2102						07/16/2001	07/27/2001	"7/16/01, 7/27/01"																											
DENA	Kahiltna Base Camp	BASE	2002	0	MEDIUM	62.96977	-151.16712	2188						05/14/2002		"5/14/02, 5/18/02, 6/15/02, "	1	"05/15/2002 - 05/17/2002, 05/19/2002 - 05/23/2002"																									
DENA	Pika Glacier	PICA	2002	0	MEDIUM	62.69682	-151.1899	1758						06/28/2002	08/14/2002	"6/28/02, 7/19/02, 8/14/02"	0																										
DENA	Ruth Glacier	RUTH	2002	0	VERY HIGH	62.96713	-150.7489	1742						05/14/2002	07/19/2002	"5/14/02, 5/18/02, 6/17/02, 7/19/02"		"05/19/2002 - 06/14/2002, 06/19/2002 - 06/24/2002, 06/26/2002 - 07/18/2002"																									
DENA	Stampede Airstrip	STAM	2002	1	MEDIUM	63.74942	-150.32728	573								"11/11/02, 11/27/02, 1/15/03, 1/30/03, 4/15/03, 6/5/03, 6/12/03, 9/9/03, 2/26/04, 3/30/04, "	1	"09/17/2002 - 09/23/2002, 09/25/2002 - 11/10/2002, 11/12/2002 - 11/21/2002, 01/31/2003 - 03/13/2003, 04/16/2003 - 06/04/2003, 06/06/2003 - 07/01/2003, 07/03/2003 - 07/26/2003, 07/28/2003 - 08/06/2003, 08/08/2003 - 08/14/2003, 08/23/2003 - 09/08/2003, 09/10/2003 NEEDS RESOLUTION OF BEAR FENCE TICKING"																									
YUCH	Yukon River 57.5	Y057	2002	0	na	64.9795	-141.3715	811						07/02/2002	07/14/2002	"7/2/02, 7/14/02"																											
YUCH	Yukon River 205.5	Y205	2002	0	na	65.4327	-143.632	640						06/17/2002	07/17/2002	"6/17/02, 7/17/02"																											
DENA	Upper Wigand Creek	UPWC	2003	0	LOW	63.7712	-149.9938	605							07/02/2003	"6/5/03, 6/12/03, 7/02/03"		"06/06/2003 - 06/11/2003, 06/13/2003 - 06/29/2003"																									
DENA	Wonder Lake Frog Ponds	FROG	2004	0	ROAD	63.45966	-150.84592	664								"5/19/04, 6/24/04 "		05/20/2004 - 06/23/2004 MANY DROPPED SECTIONS																									
DENA	Lower East Fork Toklat	LEFK	2004	0	MEDIUM	63.8564	-149.99727	512								"5/24/04, 6/30/04, 8/6/04, 9/01/04, "		"03/24/2005 - 04/02/2005, 04/07/2005 - 05/02/2005, 05/17/2005 - 05/22/2005, 06/24/2005 - 07/14/2005, 07/16/2005 - 07/31/2005, 08/02/2005 - 08/18/2005"																									
DENA	Upper Savage River	USVG	2004	0	LOW	63.65941	-149.21909	1069						05/27/2004	09/22/2004	"5/27/04, 6/11/04, 6/22/04, 8/9/04, 9/7/04, 9/22/04"		"05/28/2004 - 06/07/2004, 06/12/2004 - 06/21/2004, 06/23/2004 - 07/03/2004"																									
DENA	Research Boulder	BLDR	2005	1	MEDIUM	63.32898	-149.34235	806						03/17/2005	05/05/2005	"3/28/05, 4/8/05, 4/9/05, 4/28/05, 5/5/05"	1	"03/18/2005 - 03/27/2005, 03/29/2005 - 04/02/2005, 04/10/2005 - 04/16/2005, 04/29/2005 - 05/01/2005"																									
DENA	Lower East Fork Toklat	LEFK	2005	1	MEDIUM	63.85641	-149.99731	510						03/22/2005	08/19/2005	"3/22/05, 4/6/05, 5/15/05, 6/5/05, 6/23/05, 8/1/05, 8/5/05, 8/19/05"		"03/24/2005 - 04/02/2005, 04/07/2005 - 05/02/2005, 05/17/2005 - 05/22/2005, 06/06/2005 - 06/14/2005, 06/24/2005 - 07/14/2005, 07/16/2005 - 07/31/2005, 08/02/2005 - 08/18/2005"																									
DENA	McKinley Bar Trail	MBAR	2005	0	LOW	63.4407	-150.8358	615						06/08/2005	08/28/2005	"6/8/05, 6/9/05, 6/10/05, 6/22/05, 7/8/05, 7/22/05, 8/28/05"	1	"06/11/2005 - 06/21/2005, 06/23/2005 - 07/07/2005"																									
DENA	Toe of the Tokositna	TOKO	2005	0	VERY HIGH	62.665	-150.788	305						03/25/2005	08/28/2005	"3/25/05, 4/3/05, 5/19/05, 6/9/05, 7/20/05, 8/1/05, 8/3/05, 8/28/05"		"07/21/2005 - 07/31/2005, 08/02/2005 - 08/27/2005"										Davyd Betchkal															
DENA	Upper East Fork Toklat	UEFK	2005	0	LOW	63.501	-149.632	1327						04/14/2005	08/23/2005	"4/14/05, 4/29/05, 5/3/05,  5/26/05, 5/27/05, 6/25/05, 6/28/05, 7/6/05, 7/15/05, 7/21/05, 8/23/05"	1	08/06/2005 - 08/14/2005																									
DENA	Caribou Creek	CARB	2006	0	MEDIUM	63.6064	-150.8313	545.5	23	29				05/17/2006	09/17/2006	"5/17/06, 6/14/06, 7/24/06, 8/8/06, 8/24/06"	1	"05/18/2006 - 05/21/2006, 06/08/2006 - 06/28/2006, 07/12/2006 - 07/23/2006, 07/25/2006 - 07/28/2006, 08/25/2006 - 09/16/2006"	6/15/06 - 8/25/06	07/21/2006							33	Davyd Betchkal	4	1	5/18/06 - 8/25/06	26	Jared Withers	"LD 824 Sound Pressure Level Meter, Laptop-based Data Logger, 1/2"" free-field microphone, Sennheiser ME62 Audibility Microphone"	0						99	Alaska Range Kantishna Hills	Do not include last two days of Audibility in analysis; 7/27/06 is only a partial day and 8/25/06 is far removed from the main body of data.
DENA	Foggy Pass	FOGG	2006	0	LOW	63.39701	-149.28357	896.7	18.4					05/17/2006	06/29/2006	"5/17/06, 6/12/06, 6/29/06"	1	"05/18/2006 - 06/06/2006, 06/13/2006 - 06/24/2006"	5/18/06 - 6/24/06	06/06/2006							31	Davyd Betchkal	0	1	5/18/06 - 6/24/06	26	Jared Withers	"LD 824 Sound Pressure Level Meter, Laptop-based Data Logger, 1/2"" free-field microphone, Sennheiser ME62 Audibility Microphone"	0						99	Alaska Range South Central Mountains and Valleys	
DENA	Healy Ridge	HEAL	2006	0	LOW	63.7463	-149.1957	1356.7						06/18/2006	10/06/2006	"6/18/06, 7/12/06, 8/2/06, 8/29/06, 10/6/06"	1	"06/19/2006 - 06/24/2006, 08/10/2006 - 08/23/2006, 08/31/2006 - 09/27/2006"	6/19/06 - 9/25/06	08/07/2006							47	Davyd Betchkal	1	1	6/19/06 - 9/26/06	24	Jared Withers	"LD 824 Sound Pressure Level Meter, Laptop-based Data Logger, 1/2"" free-field microphone, Sennheiser ME62 Audibility Microphone"	0						99	Alaska Range High Mountains	
DENA	Muldrow Glacier	MULD	2006	0	LOW	63.2688	-150.42375	1370	18.1	18.6				05/17/2006	09/30/2006	"5/17/06, 6/14/06, 7/24/06, 7/24/06, 8/8/06, 8/26/06, 9/30/06"	1	"05/18/2006 - 05/29/2006, 06/08/2006 - 06/09/2006, 07/12/2006 - 07/23/2006, 07/25/2006 - 08/01/2006, 08/09/2006 - 08/18/2006, 08/27/2006 - 09/29/2006"	5/18/06 - 6/08/06	05/29/2006							13	Davyd Betchkal	0	1	5/18/06 - 7/14/06	13	Jared Withers	"LD 824 Sound Pressure Level Meter, Laptop-based Data Logger, 1/2"" free-field microphone, Sennheiser ME62 Audibility Microphone"	0						99	Alaska Range High Mountains	
DENA	Toe of the Ruth Glacier	RUGL	2006	0	VERY HIGH	62.70476	-150.52008	618.7	18.9					05/17/2006	09/30/2006	"5/17/06, 6/12/06, 7/7/06, 7/24/06, 8/8/06, 8/26/06, 9/30/06"	1	"05/18/2006 - 06/01/2006, 06/08/2006 - 06/11/2006, 06/13/2006 - 06/21/2006, 07/25/2006 - 08/14/2006, 08/27/2006 - 09/27/2006"	5/18/06 - 6/21/06	06/04/2006							29	Davyd Betchkal	0	1	5/18/06 - 6/28/06	17	Jared Withers	"LD 824 Sound Pressure Level Meter, Laptop-based Data Logger, 1/2"" free-field microphone, Sennheiser ME62 Audibility Microphone"	0						99	Alaska Range South Central Mountains and Valleys	
DENA	West Fork Yentna River	WFYR	2006	0	LOW	62.38848	-152.13484	246.6	18.4					07/07/2006	08/12/2006	"7/7/06, 8/8/06, 8/26/06"	1	"07/25/2006 - 08/05/2006, 08/09/2006 - 08/11/2006"	7/25/06 - 8/09/06	08/02/2006							16	Davyd Betchkal	0	1	7/25/06 - 8/09/06	8	Jared Withers	"LD 824 Sound Pressure Level Meter, Laptop-based Data Logger, 1/2"" free-field microphone, Sennheiser ME62 Audibility Microphone"	0						99	Alaska Range South Central Mountains and Valleys	
DENA	Bear Creek	BEAR	2007	0	LOW	63.79082	-151.20482	212.6						06/13/2007	09/14/2007		1	"06/14/2007 - 06/19/2007, 07/13/2007 - 07/27/2007, 07/29/2007 - 08/16/2007, 08/18/2007 - 09/13/2007"	6/14/07 - 9/14/07	07/30/2007							71	Davyd Betchkal	0	1	7/13/07 - 8/12/07	16	Corrie Lane	"LD 824 Sound Pressure Level Meter, Laptop-based Data Logger, 1/2"" free-field microphone, Sennheiser ME62 Audibility Microphone"	0						99	Kuskokwim Alluvial Fans and Floodplains	
DENA	Blind Creek	BLCR	2007	1	MEDIUM	63.21919	-149.65857	990.6						03/28/2007	06/01/2007		1	"03/29/2007 - 03/31/2007, 04/02/2007 - 04/10/2007, 04/12/2007 - 05/31/2007"	3/30/07 - 5/31/07	04/30/2007							63	Davyd Betchkal	0	1	3/30/07 - 4/29/07	16	Davyd Betchkal	"LD 824 Sound Pressure Level Meter, Laptop-based Data Logger, 1/2"" free-field microphone, Sennheiser ME62 Audibility Microphone"	0						99	Alaska Range South Central Mountains and Valleys	
DENA	Cathedral Mountain	CATH	2007	0	LOW	63.57178	-149.60629	1202.3						05/18/2007	09/15/2007		1	"05/19/2007 - 06/05/2007, 06/07/2007 - 06/25/2007, 07/17/2007 - 09/06/2007, 09/08/2007 - 09/14/2007"	5/19/07 - 6/16/07	06/02/2007							28	Davyd Betchkal	0	1	5/19/07 - 6/16/07	15	Corrie Lane	"LD 824 Sound Pressure Level Meter, Laptop-based Data Logger, 1/2"" free-field microphone, Sennheiser ME62 Audibility Microphone"	0						99	Alaska Range Interior Mountains and Valleys	
DENA	Chitsia Creek	CHCR	2007	0	MEDIUM	63.95127	-150.35603	433.3						06/01/2007	07/04/2007		1	"06/02/2007 - 06/11/2007, 06/14/2007 - 07/03/2007"	6/02/07 - 7/03/07	06/18/2007							31	Davyd Betchkal	0	1	6/02/07 - 6/20/07	15	Corrie Lane	"LD 824 Sound Pressure Level Meter, Laptop-based Data Logger, 1/2"" free-field microphone, Sennheiser ME62 Audibility Microphone"	0						99	Alaska Range Kantishna Hills	
DENA	Hidden River	HIDR	2007	0	MEDIUM	62.87249	-150.11368	955.5						08/16/2007	09/13/2007		1	"08/17/2007 - 08/30/2007, 09/01/2007 - 09/08/2007, 09/11/2007 - 09/12/2007"	8/17/07 - 9/12/07	08/30/2007							24	Davyd Betchkal	0	0	99	99	99	"LD 824 Sound Pressure Level Meter, Laptop-based Data Logger, 1/2"" free-field microphone, Sennheiser ME62 Audibility Microphone"	0						99	Alaska Range South Central Mountains and Valleys	
DENA	Kahiltna Pass	KAHP	2007	0	LOW	63.0798	-151.17419	3080.2						06/20/2007	07/04/2007		1	06/21/2007 - 07/03/2007	6/21/07 - 7/03/07	06/27/2007							14	"Jared Withers, Davyd Betchkal"	0	1	6/21/07 - 7/03/07	13	Corrie Lane	"LD 824 Sound Pressure Level Meter, Laptop-based Data Logger, 1/2"" free-field microphone, Sennheiser ME62 Audibility Microphone"	0						99	Alaska Range High Mountains	
DENA	Lower East Fork Toklat	LEFK	2007	1	MEDIUM	63.85641	-149.99731	498.2	20.3					03/20/2007	05/20/2007		1	"03/21/2007 - 03/31/2007, 04/02/2007 - 04/09/2007, 04/11/2007 - 05/19/2007"	3/21/07 - 5/19/07	04/20/2007							60	Davyd Betchkal	0	1	3/21/07 - 4/25/07	17	Davyd Betchkal	"LD 824 Sound Pressure Level Meter, Laptop-based Data Logger, 1/2"" free-field microphone, Sennheiser ME62 Audibility Microphone"	1							Alaska Range Toklat Basin	
DENA	Lower Eldridge Glacier	LELD	2007	0	MEDIUM	63.05045	-150.07388	892.6						06/01/2007	08/01/2007		1	"06/02/2007 - 06/09/2007, 07/13/2007 - 07/27/2007, 07/29/2007 - 07/31/2007"	6/02/07 - 7/31/07	07/02/2007							27	Davyd Betchkal	0	0	99	99	99	"LD 824 Sound Pressure Level Meter, Laptop-based Data Logger, 1/2"" free-field microphone, Sennheiser ME62 Audibility Microphone"	1							Alaska Range High Mountains	
DENA	McLeod Creek	McLE	2007	0	LOW	63.43005	-151.23166	542.6						07/28/2007	08/17/2007		1	07/29/2007 - 08/16/2007	7/29/07 - 8/16/07	08/07/2007							19	Davyd Betchkal	1	1	7/29/07 - 8/24/07	14	Corrie Lane	"LD 824 Sound Pressure Level Meter, Laptop-based Data Logger, 1/2"" free-field microphone, Sennheiser ME62 Audibility Microphone"	0						99	Kuskokwim Glaciated Hills and Pitted Plains	
DENA	Pica Glacier	PICA	2007	0	MEDIUM	62.7374	-151.26781	1250.3						07/28/2007	08/14/2007		1	07/29/2007 - 08/13/2007	7/29/07 - 8/13/07	08/06/2007							16	Davyd Betchkal	1	1	7/29/07 - 8/15/07	18	Corrie Lane	"LD 824 Sound Pressure Level Meter, Laptop-based Data Logger, 1/2"" free-field microphone, Sennheiser ME62 Audibility Microphone"	0						99	Alaska Range High Mountains	
DENA	Highpower Creek	HICR	2008	0	LOW	63.08447	-152.05722	639	12.9					06/02/2008	06/26/2008		1	05/31/2008 - 07/02/2008	5/31/08 - 7/02/08	06/16/2008							33	"Jared Withers, Davyd Betchkal"	10	1	5/31/08 - 6/28/08	15	Jori Welchans	"LD 824 Sound Pressure Level Meter, Laptop-based Data Logger, 1/2"" free-field microphone, Sennheiser ME62 Audibility Microphone"								Kuskokwim Glaciated Hills and Pitted Plains	
DENA	Toe of the Kahiltna	TKAH	2008	0	MEDIUM	62.54195	-151.30338	819.8									1	"06/14/2008 - 06/20/2008, 06/30/2008 - 07/02/2008, 07/04/2008 - 07/12/2008, 07/14/2008 - 07/15/2008, 08/09/2008 - 08/10/2008, 08/12/2008 - 08/13/2008"	8/09/08 - 8/17/08	08/13/2008							9	Jared Withers	0	1	8/09/08 - 8/18/08	10	Jori Welchans	"LD 824 Sound Pressure Level Meter, Laptop-based Data Logger, 1/2"" free-field microphone, Sennheiser ME62 Audibility Microphone"								Alaska Range South Central Mountains and Valleys	
DENA	Toe of the Tokositna	TOKO	2008	0	VERY HIGH	62.66451	-150.79065	273.3									1	08/27/2008 - 09/12/2008	8/27/08 - 9/12/08	09/04/2008							17	Jared Withers	0	1	7/15/08 - 8/25/08	15	Jori Welchans	"LD 824 Sound Pressure Level Meter, Laptop-based Data Logger, 1/2"" free-field microphone, Sennheiser ME62 Audibility Microphone"								Cook Inlet Braided Floodplains and Stream Terraces	
DENA	Upper Wigand Creek	UPWC	2008	0	LOW	63.76028	-149.98921	639.3	18.7								1	"06/01/2008 - 06/06/2008, 07/23/2008 - 07/29/2008, 08/25/2008 - 09/17/2008"	8/25/08 - 9/17/08	09/06/2008							24	"Jared Withers, Davyd Betchkal"	0	1	6/01/08 - 9/16/08	20	Jori Welchans	"LD 824 Sound Pressure Level Meter, Laptop-based Data Logger, 1/2"" free-field microphone, Sennheiser ME62 Audibility Microphone"								Alaska Range Toklat Basin	
DENA	Upper Slippery Creek	USLC	2008	0	LOW	63.25249	-151.2464	882.9									1	07/23/2008 - 08/10/2008	7/23/08 - 8/11/08	08/02/2008							19	"Jared Withers, Davyd Betchkal"	2	1	7/23/08 - 8/10/08	15	Jori Welchans	"LD 824 Sound Pressure Level Meter, Laptop-based Data Logger, 1/2"" free-field microphone, Sennheiser ME62 Audibility Microphone"								Kuskokwim Alluvial Fans and Floodplains	
KEFJ	Visitor Facilities Zone	1	2008	0	na	60.1883	-149.63137	131						07/16/2008	08/21/2008			07/17/2008 - 07/21/2008																									"Edge of forest near SE corner of parking lot for Exit Glacier Nature Center. Deciduous trees: willow, cottonwood, Alder shrubs, and rocky/moraine material."
KEFJ	Hiker Zone	2	2008	0	na	60.18374	-149.66438	630						07/17/2008	08/25/2008			"07/18/2008 - 07/25/2008, 07/27/2008 - 08/07/2008, 08/09/2008 - 08/25/2008"																									"Harding Icefield trail. Alder, heather, hellebore, and snow cover."
KEFJ	Pedestrian Zone	3	2008	0	na	60.18231	-149.64233	179						07/18/2008	08/23/2008			"07/19/2008 - 07/25/2008, 07/27/2008 - 08/23/2008"																									"Exit Glacier trail on an exposed rock face. Alder, willow, moss, and 75% bedrock (moraine)."
KEFJ	Semi-Primitive Zone	4	2008	0	na	60.19999	-149.60349	105						07/21/2008	08/14/2008			"07/22/2008 - 07/23/2008, 07/25/2008 - 07/26/2008, 07/28/2008 - 07/29/2008, 07/31/2008 - 08/02/2008, 08/11/2008 - 08/14/2008"																									"Nike site. Spruce, cottonwood, willow, lichen, moss, dwarf fireweed; glacier deposit – gravel."
DENA	Center Alaska	CEAK	2009	0	LOW	63.80506	-152.01262	207									1	05/30/2009 - 06/27/2009	5/30/09 - 6/27/09	06/13/2009							28	Davyd Betchkal	1	1	5/30/09 - 6/27/09	15	Davyd Betchkal		1							Kuskokwim Minchumina Basin	
DENA	Dunkle Hills	DUNK	2009	1	HIGH	63.26699	-149.54153	828.3									0		NA	NA							NA	Davyd Betchkal	99	1	1/05/09 - 4/09/09	16	Davyd Betchkal		?							Cook Inlet Glaciated Hills and Plains	5 of the 16 days of Audibility are far removed from the rest.  Do not use.
DENA	Herron River	HERI	2009	0	LOW	63.26059	-152.05447	489.9					"was VABM, ended season"	07/30/2009	09/16/2010	"7/30/09, 8/14/09, 9/16/10"	1	07/31/2009 - 09/01/2009	08/01/09 - 09/01/09	08/17/2009							32	Davyd Betchkal	4	1	7/31/09 - 8/31/09	15	Davyd Betchkal	"LD 831 Sound Pressure Level Meter, 1/2"" free-field microphone, HOBO wind logger, EDIROL continuous recorder (part of the time), 2X 35 Ahr Batteries, 1X 10 W PV"	1		1448	not documented	106038	not documented	not documented	Kuskokwim Alluvial Fans and Floodplains	
DENA	Lower Slippery Creek	LSLC	2009	0	LOW	63.62359	-151.24017	364.6							09/16/2009	"??, 9/16/09"	1	"07/21/2009 - 07/29/2009, 07/31/2009 - 08/13/2009, 08/15/2009 - 09/15/2009"	07/21/09 - 09/15/09	08/18/2009							53	Davyd Betchkal	0	1	7/21/09 - 8/23/09	17	Davyd Betchkal	"LD 831 Sound Pressure Level Meter, 1/2"" free-field microphone, HOBO wind logger, 1X 35 Ahr Lead Acid Battery"	1					99	not documented	Kuskokwim Glaciated Hills and Pitted Plains	
DENA	Triple Lakes	TRLA	2009	0	LOW	63.66258	-148.87473	654	13				"began season, became UWBT"		08/07/2009	"??, 7/17/09, 7/22/09, 7/31/09, 8/07/09"	1	"07/01/2009 - 07/06/2009, 07/17/2009 - 07/21/2009, 07/23/2009 - 08/06/2009"	7/01/09 - 8/06/09	07/19/2009							26	Davyd Betchkal	0	1	7/01/09 - 8/06/09	14	Davyd Betchkal	"LD 831 Sound Pressure Level Meter, 1/2"" free-field microphone, 2X 6V Alkaline, 1X 35 W PV"	0		1447	10091	106036	99	99	Alaska Range Interior Mountains and Valleys	
DENA	Upper Tokositna	UTOK	2009	0	VERY HIGH	62.88184	-150.88486	1025.1							09/16/2009	"??, 7/20/09, 8/17/09, 9/16/10"	1	"06/03/2009 - 06/09/2009, 08/19/2009 - 09/15/2009"	6/03/09 - 9/15/09	07/25/2009							36	Davyd Betchkal	1	0	99	99	99	"first LD 824 Sound Pressure Level Meter, Laptop-based Data Logger, 1/2"" free-field microphone, Sennheiser ME62 Audibility Microphone, HOBO wind logger, 2X 35 Ahr Batteries, 2X 50 W PV then LD 831 Sound Pressure Level Meter, 1/2"" free-field microphone,  HOBO wind logger, 2X 35 Ahr Batteries, 2X 50 W PV"	0					99	99	Alaska Range High Mountains	
DENA	Upper Traleika	UTRA	2009	0	LOW	63.07688	-150.82539	2537.4						06/10/2009		"6/10/09, ??"	1	06/11/2009 - 06/13/2009	6/11/09 - 6/13/09	06/12/2009							3	Davyd Betchkal	0	1	6/10/09 - 6/13/09	4	Davyd Betchkal	"LD 831 Sound Pressure Level Meter, 1/2"" free-field microphone, HOBO wind logger, 2X 6V Alkaline Batteries"	0					99	99	Alaska Range High Mountains	
DENA	Upper West Branch Toklat	UWBT	2009	0	LOW	63.40927	-150.03561	1223.9					"was TRLA, ended season"	08/11/2009	09/24/2009	"8/11/09, 8/19/09, 09/11/09, 09/24/09"	1	"08/12/2009 - 08/15/2009, 08/20/2009 - 09/05/2009"	08/12/09 - 09/05/12	08/24/2009							21	Davyd Betchkal	1	1	8/12/09 - 9/05/09	11	Davyd Betchkal	"LD 831 Sound Pressure Level Meter, 1/2"" free-field microphone, 2X 25 Ahr Li-Ion Batteries, HOBO wind logger"	0		1447	10091	106036	99	99	Alaska Range Interior Mountains and Valleys	
DENA	North VABM	VABM	2009	0	LOW	63.45519	-152.04146	325.5					"began season, became HERI"	06/29/2009	07/30/2009	"6/29/09, 7/20/09, 7/30/09"	1	"06/29/2009 - 07/18/2009, 07/21/2009 - 07/29/2009"	6/29/09 - 7/29/09	07/14/2009							27	Davyd Betchkal	4	1	6/29/09 - 7/29/09	14	Davyd Betchkal	"LD 831 Sound Pressure Level Meter, 1/2"" free-field microphone, 2X 35 Ahr Batteries, 1X 35 W PV"	1		1448	not documented	106038	99	not documented	Kuskokwim Alluvial Fans and Floodplains	
DENA	West Buttress	WEBU	2009	0	LOW	63.06929	-151.07126	4345						06/10/2009		"6/10/09, ??"	1	06/11/2009 - 06/12/2009	6/11/09 - 6/12/09	06/12/2009							2	Davyd Betchkal	0	1	6/10/09 - 6/12/09	3	Davyd Betchkal	"LD 831 Sound Pressure Level Meter, 1/2"" free-field microphone, HOBO wind logger, 2X 6V Alkaline Batteries"	0					99	99	Alaska Range High Mountains	
KEFJ	Visitor Facilities Zone	5	2009	1	na	60.18938	-149.62253	143						02/22/2009	04/09/2009			"02/23/2009 - 02/26/2009, 02/28/2009 - 03/12/2009, 03/14/2009 - 03/23/2009, 03/25/2009 - 04/05/2009"																									"Flat, deciduous trees, snow cover. Open area for snow course."
KEFJ	Pedestrian Zone	6	2009	1	na	60.18231	-149.64233	179						04/09/2009	04/24/2009			"04/10/2009 - 04/11/2009, 04/14/2009 - 04/16/2009, 04/18/2009 - 04/19/2009"																									"Alders, gravel, moss, and lichen. Moraine next to toe of Glacier"
DENA	Kahiltna Pass 	KAHP	2010	0	LOW	63.07547	-151.17464	3003.5	5.2				"was TOKO, SLM became UWFY version 2"	05/27/2010		"5/27/10, ??"	1	05/28/2010 - 06/26/2010	5/28/09 - 6/26/09	06/12/2009							29	Davyd Betchkal	1	1	5/28/10 - 6/25/10	15	Davyd Betchkal	"LD 831 Sound Pressure Level Meter, 1/2"" free-field microphone, EDIROL continuous recorder, HOBO wind logger, 2X 35 Ahr Batteries, 2X 50 W PV"	1		1717	12517	106038	48865	2226883	Alaska Range High Mountains	
DENA	Lower Kantishna River	LKAR	2010	0	LOW	63.96405	-151.20627	168	14.8					06/05/2010	09/20/2010	"6/05/10, 7/01/10, 9/20/10"	1	"06/06/2010 - 06/30/2010, 07/02/2010 - 08/08/2010, 08/10/2010 - 08/14/2010"	6/06/10 - 7/10/10	06/23/2010							33	Davyd Betchkal	0	1	6/06/10 - 7/04/10	15	Davyd Betchkal	"LD 831 Sound Pressure Level Meter, 1/2"" free-field microphone, EDIROL continuous recorder, 1X 100 Ahr Batteries, 2X 50 W PV"	1		2041	15303	112827	48866	9744198	Kuskokwim Minchumina Basin	Wildfire area one season prior to sampling.  Station stranded at sampling location most of the summer due to inability to land the helicopter.  Gap in SPLat analysis due to a maintainance break; 070110.
DENA	Myrtle	MYRT	2010	0	MEDIUM	63.59731	-150.40863	946.5	12					08/05/2010	09/20/2010	"8/05/10, 8/23/10, 9/20/10"	1	"08/06/2010 - 08/22/2010, 08/24/2010 - 09/19/2010"	8/06/10 - 9/19/10	08/28/2010							45	Davyd Betchkal	1	1	8/24/10 - 9/19/10	14	Davyd Betchkal	"LD 831 Sound Pressure Level Meter, 1/2"" free-field microphone, EDIROL continuous recorder, HOBO wind logger, 2X 35Ahr Batteries, 2X 35 W PV"	1		2040	12518	109570	48868	1039287	Alaska Range Kantishna Hills	
DENA	Toe of the Tokositna	TOKO	2010	1	VERY HIGH	62.66478	-150.79039	273	5.2				"winter, case and PV to KAHP, guts became LKAR"	03/12/2010	05/27/2009	"3/12/10, 5/27/09"	1	"03/13/2010 - 04/12/2010, 04/14/2010 - 05/12/2010"	3/13/10 - 4/12/10	03/28/2010							31	Davyd Betchkal	0	1	3/13/10 - 4/04/10	12	Davyd Betchkal	"LD 831 Sound Pressure Level Meter, 1/2"" free-field microphone, EDIROL continuous recorder, 2X 100 Ahr Batteries, 2X 50 W PV"	0		2041	15303	112827	not documented	99	Cook Inlet Braided Floodplains and Stream Terraces	Directly screened to the north by a low (< 15') stand of balsam poplars…
DENA	Upper Dall Glacier	UDAL	2010	0	LOW	62.72931	-152.08225	1240.9					was UWFY…	07/01/2010	08/23/2010	"7/01/10, 8/23/10"	1	07/02/2010 - 07/19/2010	7/02/10 - 7/20/10	07/11/2010							19	Davyd Betchkal	3	1	7/02/10 - 7/19/10	15	Davyd Betchkal	"LD 831 Sound Pressure Level Meter, 1/2"" free-field microphone, EDIROL R-09HR continuous recorder, HOBO wind logger, 2X 35Ahr Batteries, 2X 35 W PV"	1		1447	16922	116846	48867	1039300	Alaska Range High Mountains	
DENA	Upper Ohio Glacier	UOHI	2010	0	LOW	63.22536	-150.02376	1503.9	11				"began season, microphone assembly became UWFY version 2"	05/28/2010	07/01/2010	"5/28/10, 7/01/10"	1	"05/29/2010 - 06/24/2010, 06/26/2010 - 06/30/2010"	5/29/10 - 6/30/10	06/14/2010							32	Davyd Betchkal	0	1	5/29/10 - 6/29/10	16	Davyd Betchkal	"LD 831 Sound Pressure Level Meter, 1/2"" free-field microphone, EDIROL continuous recorder, HOBO wind logger, 2X 35Ahr Batteries, 2X 35 W PV"	1		1716	15302	112782	48868	1039289	Alaska Range High Mountains	
DENA	Upper West Fork Yenta River	UWFY	2010	0	LOW	62.54351	-152.47501	343.3	4	6.6			"began season, "	05/28/2010	08/23/2010	"5/28/10, 7/01/10, 7/30/10, 8/23/10"	0		5/29/10 - 6/22/10	06/10/2010							8	Davyd Betchkal	0	1	5/29/10 - 6/24/10	14	Davyd Betchkal	"LD 831 Sound Pressure Level Meter, 1/2"" free-field microphone, EDIROL continuous recorder, HOBO wind logger, 2X 35Ahr Batteries, 2X 35 W PV"	1		1717	15302	112782	85972	1039289	Alaska Range South Central Mountains and Valleys	"Site sampled twice with two different setups - the first failed due to incorrect settings on the SLM (1-octave band data instead of 1/3-octave band data).  During the second sampling period, the SLM and EDIROL were destroyed by the Yentna river changing course.  Pelican case completely submerged and filled with water."
DENA	West Buttress 	WEBU	2010	0	LOW	63.06929	-151.07126	4345						05/27/2010			0		5/28/10 - 6/22/10	06/10/2010							26	Davyd Betchkal	0	1	5/28/10 - 6/21/10	13	Davyd Betchkal	"LD 831 Sound Pressure Level Meter, 1/2"" free-field microphone, EDIROL continuous recorder, 4X 25 Ahr Li-Ion Batteries, 2X 50 W PV??  One panel on a tripod…"	?							Alaska Range High Mountains	
KATM	Brooks Camp Fish Freezer	1	2010	0	na	58.55485	-155.77807	50						08/11/2010	08/18/2010			08/11/2010 - 08/17/2010												1													
KATM	Brooks Camp Generators	2	2010	0	na	58.55775	-155.77902	61						08/02/2010	08/07/2010			08/02/2010 - 08/06/2010												1													
KATM	Lake Brooks	3	2010	0	na	58.54693	-155.79388	75						09/16/2010	09/20/2010			09/16/2010 - 09/19/2010												1													
KATM	Brooks Camp Lower Platform	4	2010	0	na	58.55251	-155.77825	48						09/15/2010	09/20/2010			07/26/2010 - 07/30/2010												1													
KATM	Brooks Camp New Barge Landing	5	2010	0	na	58.55002	-155.77172	48						08/30/2010	09/04/2010			09/15/2010 - 09/19/2010												1													
KATM	Brooks Camp Visitor Center	6	2010	0	na	58.55593	-155.77773	46						08/28/2010	09/06/2010			08/30/2010 - 09/04/2010												1													
KATM	Brooks Camp Leach Field	7	2010	0	na	58.55693	-155.77982	59						07/26/2010	07/30/2010			08/28/2010 - 09/05/2010												1													
DENA	Estok	ESTO	2011	0	MEDIUM	63.94298	-149.96233	452	5.1				"was NTRL, ended season"	07/31/2011	09/10/2011	"7/31/11, 8/27/11, 9/10/11"	1	"08/01/2011 - 08/14/2011, 08/28/2011 - 09/09/2011"	8/01/11 - 9/09/11	08/21/2011	01:55	03:55	04:58	21:10	22:13	00:13	27	Davyd Betchkal	0	1	"8/01/11 - 08/07/11, 8/28/11 - 9/03/11"	14	Davyd Betchkal	"LD 831 Sound Pressure Level Meter, 1/2"" free-field microphone, R05 continuous recorder, Davis Weather Array, 2X Lead Acid Batteries, 2X 35 W PV"	1	0	1448	10091	106038	64386	99	Alaska Range Teklanika Mountains and Plateaus	"An open meadow of very deep sedge tussock with labrador tea, and low dwarf birch.  Meadow fringed by a small, fast-flowing, rocky-bottomed, tannic stream; a tributary of the Toklat River.  The banks are fringed by spruce and balsam poplar, some of which are quite tall.  The water is a constant source to the microphone - high, thin and splashy.  Peeping of various birds around the periphery, all towards the creek (West).  Low hills to the East."
DENA	Fang Mountain	FANG	2011	0	LOW	63.56617	-149.2056	1533.6	5.4				"began season, ended season"	06/30/2011	08/20/2011	"6/30/11, 7/27/11, 8/20/11"	1	"07/01/2011 - 07/26/2011, 07/28/2011 - 08/04/2011"	7/01/11 - 8/04/11	07/18/2011	none	none	02:52	23:10	none	none	33	Davyd Betchkal	0	1	7/01/11 - 7/07/11	7	Davyd Betchkal	"LD 831 Sound Pressure Level Meter, 1/2"" free-field microphone, R05 continuous recorder, Davis Weather Array, 2X Li-Poly Battery Packs, 2X 35 W PV"	1	0	1716	12490	108542	64388	99	Alaska Range High Mountains	"Area is mid-to-coarse grade talus.  (A moraine complex?)  Within a 10 m radius around the station, there is a newly developed soil with some sedges and grasses as well as early successional wildflowers.  The site, itself, is directly below Fang Mountain's towering peak on what appears to be an old glacial moraine.  A wild and crashing stream fed by a melting snowfield is audible from the site.  Arctic ground squirrels were seen calling from the site (about 20 m away to the W).  Winds changing direction from N to S while we were at the location.  Rain will likely be very common.   "
DENA	Herron Glacier	HEGL	2011	0	LOW	63.07925	-151.66535	1115.4	7.6	6			"began season, ended season"	06/18/2011	08/27/2011	"6/18/11,  7/20/11, 8/27/11"	1	"06/19/2011 - 07/15/2011, 07/21/2011 - 08/25/2011"	7/21/11 - 8/25/11	08/08/2011	none	03:30	04:38	21:36	22:44	none	34	Davyd Betchkal	6	1	"6/19/11 - 6/25/11, 7/21/11 - 7/26/11"	13	Davyd Betchkal	"LD 831 Sound Pressure Level Meter, 1/2"" free-field microphone, R05 continuous recorder, Davis Weather Array, 2X Li-FePO4 Battery Packs Number 5 and 6, 2X 35 W PV"	1	0	2040	12518	109576	64387	99	Alaska Range Interior Mountains and Valleys	"Sparse alpine tundra - mainly arctic Salix, Dryas, lichens, dwarf Betula in depressions, xxxxx.  Some bare rock along ridges.  Site is about 150 meters above the prehistoric lateral moraine of the Herron glacier.  Wind prominent.  Headwaters of the Herron River steadily audible, mainly high frequencies.  (Even in 3 m/s wind.)  Arctic ground squirrels, mosquitos, WCSP all heard during 06/18/11 visit."
DENA	McKinley Bar Trail	MBAR	2011	0	LOW	63.4407	-150.83578	610.7	6.1				"began season, became WEKH"	06/01/2011	07/20/2011	"6/1/11, 6/23/11, 6/24/11, 7/20/11"	1	"06/02/2011 - 06/10/2011, 06/12/2011 - 06/22/2011, 06/25/2011 - 07/04/2011"	6/02/11 - 7/04/11	06/18/2011	none	none	02:58	22:58	none	none	29	Davyd Betchkal	0	1	6/02/11 - 6/08/11	7	Davyd Betchkal	"LD 831 Sound Pressure Level Meter, 1/2"" free-field microphone, R05 continuous recorder, HOBO wind logger, 2X Li-FePO4 Battery Packs Number 3 and 4, 2X 35 W PV"	1	NA	2041	15303	112827	59633	1039289	Kuskokwim Alluvial Fans and Floodplains	"Relatively flat, soft-floored (moss sponge) boreal forest"
DENA	North Triple Lakes Trail	NTRL	2011	0	LOW	63.72408	-148.91745	516	5.8				"began season, became ESTO"	06/19/2011	07/11/2011	"6/19/11, 7/11/11"	1	"06/20/2011 - 06/27/2011, 08/02/2011 - 08/09/2011"	6/20/11 - 6/27/11	06/24/2011	none	none	02:34	23:22	none	none	8	Davyd Betchkal	0	1	6/20/11 - 6/26/11	7	Davyd Betchkal	"LD 831 Sound Pressure Level Meter, 1/2"" free-field microphone, R05 continuous recorder, 1X 35 Ahr Lead Acid Battery, Number 35-16, 1X 35 W PV"	0	NA	1448	10091	106038	64386	99	Alaska Range Interior Mountains and Valleys	
DENA	Stampede Airstrip	STAM	2011	1	MEDIUM	63.74887	-150.33002	565.6					winter	01/27/2011	06/18/2011	"1/27/11, 2/28/11, 6/18/11"	1	"01/28/2011 - 02/26/2011, 03/01/2011 - 03/30/2011, 04/01/2011 - 04/24/2011 ELECTRICAL CONTAMINATION OF DATA"	1/28/11 - 2/26/11	02/12/2011							30	Davyd Betchkal	1	0	99	99	99	"LD 831 Sound Pressure Level Meter, 1"" free-field microphone w/ low-noise preamplifier, EDIROL R-05 continuous recorder, 2X 100 Ahr Batteries, 2X 80 W PV and 1X 45 W PV"	1	NA	1447	67978	763489	81967	99	Alaska Range Kantishna Hills	
DENA	Upper Kahiltna Glacier	UKAH	2011	0	LOW	63.07269	-151.147	3327					"began season, became NTRL2"	06/16/2011	07/20/2011	06/16/2011	1	06/10/2011 - 06/11/2011	6/16 /11 - 6/18/11	06/17/2011							2	Davyd Betchkal	0	1	99	99	99	"LD 831 Sound Pressure Level Meter, 1/2"" free-field microphone, R05 continuous recorder, Davis Weather Array, 2X Li-FePO4 Battery Packs Number 1 and 2"	1	0	2316	16959	118266	64384	99	Alaska Range High Mountains	"At 11000 foot camp on the West Buttress route of Denali.  Snowy, windswept."
DENA	West Kantishna Hills	WEKH	2011	0	MEDIUM	63.7433	-150.87653	466.6	8.9				"was MBAR, ended season"	07/20/2011	09/10/2011	"7/20/11, 8/27/11, 9/10/11"	1	07/21/2011 - 09/09/2011	7/21/11 - 9/09/11	08/15/2011	none	03:41	04:48	21:30	22:36	none	49	Davyd Betchkal	1	1	"7/21/11 - 7/27/11, 8/28/11 - 9/03/11 "	14	Davyd Betchkal	"LD 831 Sound Pressure Level Meter, 1/2"" free-field microphone, R05 continuous recorder, Davis Weather Array, BATTERIES?, 2x 20 W PV"	1	0	2041	15303	112827	59633	99	Alaska Range Kantishna Hills	"Tussocky tundra slope over a forested tributary of the Bearpaw River.  Moist, spongy, sedge-rich with Laborador Tea, blueberry, native cranberry (two species of Vaccinium, that is), salmonberry.  All very low, spindly shrubs.  Sparse spruce timber upslope; less than 3 meters tall, mostly.  Insects very active; mosquitos, of course, clouds of midges, butterflies/moths rattling.  No bird song heard.  One can possibly hear the tributary stream."
DENA	Bison Gulch	BIGU	2012	1	LOW	63.79981	-148.98702	1028	5.5		32		winter	02/24/2012	04/11/2012	"02/24/12, 4/11/12"	1	02/25/2012 - 03/09/2012	NA	03/03/2012							NA			1	99	99	99	"LD 831 Sound Pressure Level Meter, 1/2"" free-field microphone, R05 continuous recorder, 2X 25 Ahr Lead Acid Batteries, SOLAR CONTROLLER?, 1X 20 W PV"	1	180	2759	21296	128879	59633	no numbers assigned	Alaska Range Front Range	
DENA	Bull River	BULL	2012	0	LOW	63.39192	-149.62902	1080.9	5.5		15		"ended season, SLM was KICH, R05 was UYEN"	07/14/2012	07/16/2013	"7/14/12, 07/16/13, 08/11/12"	1	"07/15/2012 - 08/10/2012, 08/12/2012 - 10/03/2012"	7/15/12 - 8/10/12 	07/28/2012	none	02:28	03:57	22:03	23:32	none	27	Davyd Betchkal	1	1	7/15/12 - 7/25/12	11	Davyd Betchkal	"LD 831 Sound Pressure Level Meter, 1/2"" free-field microphone, R05 continuous recorder, 2X LiFePO4 batteries, LIND solar controller, 1X 62 W PV"	1	27.8	2041	15303	112827	63863	"wind 4, T/RH 10"	Alaska Range South Central Mountains and Valleys	
DENA	Carlson Creek	CARL	2012	0	LOW	63.24065	-150.83653	1304.6	5.4		20		"ended season,  SLM was UYEN, R05 was KICH "	07/20/2012	09/01/2012	"7/20/12, 8/04/12, 9/01/12"	0		NA	NA										0	99	99	99	"LD 831 Sound Pressure Level Meter, 1/2"" free-field microphone, R05 continuous recorder, 2X LiFePO4 batteries (2011-02 & 2011-04), 1X 62 W PV, SunSaver 20"	1	0.4	1716	12490	108542	63485	"wind 12, T/RH 5"	Alaska Range Interior Mountains and Valleys	"07/20 site visit:  Some problems with the solar controller heating up… bring a backup?  We heard ground squirrels, rock slides, a singular bird's 'chip' call, and spruce borer beetles at this site during setup.  We also saw a Beaver, one of 5 aircraft heard - comprising 4 sound events."
DENA	Cathedral Mountain	CATH	2012	0	LOW	63.57477	-149.61148	1162.4	6		32		"ended season, was SAN3"	07/23/2012	09/08/2012	"7/23/12, 8/08/12, 9/08/12"	1	"07/24/2012 - 08/07/2012, 08/09/2012 - 09/07/2012"	7/24/12 - 9/07/12	08/15/2012	01:48	03:48	04:50	21:06	22:08	00:08	46	Davyd Betchkal	0	1	7/24/12 - 8/12/12	19	Davyd Betchkal	"LD 831 Sound Pressure Level Meter, 1/2"" free-field microphone, R05 continuous recorder, 2X LiFePO4 batteries (2012-01 & 2012-10), 2X 20 W PV, SunSaver 20"	1	7	1448	12518	106038	63489	"wind 2, T/RH ??"	Alaska Range Interior Mountains and Valleys	"07/23 site visit:  No USB drive, bring one next time.   08/08 site visit:  USB card (#7) has both first and second numeric datasets on it.  Everything was running very smoothly.  Clocks set from iPhone instead of GPS unit."
DENA	Dunkle Hills	DUNK	2012	1	MEDIUM	63.26703	-149.54225	828.3	9.2				winter	02/17/2012	04/15/2012	"02/17/12, 4/09/12, 4/15/12"	1	"02/18/2012 - 03/09/2012, 03/14/2012 - 03/16/2012, 03/18/2012 - 04/14/2012"	2/28/13 - 4/14/12	for Audibility instead	06:44	07:37	08:25	17:58	18:46	19:39	51	Davyd Betchkal	0	1	2/18/12 - 2/28/12	11	Davyd Betchkal	"LD 831 Sound Pressure Level Meter, 1/2"" free-field microphone, R05 continuous recorder, 2X LiFePO4 batteries, SOLAR CONTROLLER?, 1X 45 W PV"	1	180	2649	19209	126202	64386	3	Cook Inlet Glaciated Hills and Plains	
DENA	East Fork Toklat	EFK1	2012	0	ROAD	63.55901	-149.78572	948.4	5.5		44		Was POL4	06/29/2012	07/13/2012		1	06/30/2012 - 07/12/2012	NA								NA			1	99	99	99	"LD 831 Sound Pressure Level Meter, 1/2"" free-field microphone, R05 continuous recorder, 1X100 Ahr Lead Acid Battery #100-6, 2X 20 W PV, SunSaver 10, Davis Weather Array"	1	6	2316	16959	118266	59633	"wind 3, T/RH 2"	Alaska Range Interior Mountains and Valleys	
DENA	Highway Pass 1	HIG1	2012	0	ROAD	63.47992	-150.14195	1213.8	7		15		Was HIG2	07/26/2012	08/10/2012		1	07/27/2012 - 08/09/2012	NA								NA			1	99	99	99	"LD 831 Sound Pressure Level Meter, 1/2"" free-field microphone, R05 continuous recorder, 2X35 Ahr Lead Acid Battery #35-8, #35-10, 2X 20 W PV, SunSaver 10, Davis Weather Array"	1	24	2317	16961	118683	64384	"wind 10, T/RH 4"	Alaska Range Interior Mountains and Valleys	"No calibrator, so couldn't get calibration tone, calibrate LD, or get actual input level.  Input leve of 15 is what was on R-05.  Had issues with battery, so used same batteries used at HIG2.  Batter level running was 14.0."
DENA	Highway Pass 2	HIG2	2012	0	ROAD	63.4769	-150.15179	1185.4	4.4		14		Was POL1	07/13/2012	07/26/2012		1	07/14/2012 - 07/25/2012	NA								NA			1	99	99	99	"LD 831 Sound Pressure Level Meter, 1/2"" free-field microphone, R05 continuous recorder, 2X35 Ahr Lead Acid Battery #35-8, #35-10, 2X 20 W PV, SunSaver 10, Davis Weather Array"	1	26	2317	16961	118683	64384	"wind 10, T/RH 4"	Alaska Range Interior Mountains and Valleys	
DENA	Hogan Creek 2	HOG2	2012	0	ROAD	63.7253	-149.41916	835.5	5.4		19		Was PRM2	08/24/2012	09/07/2012		1	08/25/2012 - 09/06/2012	NA								NA			1	99	99	99	"LD 831 Sound Pressure Level Meter, 1/2"" free-field microphone, R05 continuous recorder, 1X100 Ahr Lead Acid Battery #100-6, 2X 20 W PV, SunSaver 10, Davis Weather Array"	1	0	2316	16959	118266	59633	"wind 3, T/RH 2"	Alaska Range Front Range	
DENA	Hogan Creek 3	HOG3	2012	0	ROAD	63.72329	-149.40858	888	5		18		began season	05/31/2012	06/15/2012		1	06/01/2012 - 06/14/2012	NA								NA			1	99	99	99	"LD 831 Sound Pressure Level Meter, 1/2"" free-field microphone, R05 continuous recorder, 2X 35 Ahr Lead Acid Battery #9 #6, 2X 20 W PV, SunSaver 10, Davis Weather Array"	1	18	2317	16961	118683	64384	"wind 3, T/RH 2"	Alaska Range Front Range	Road is a long steady uphill through valley climaxing near station.
DENA	Igloo Canyon 1	IGL1	2012	0	ROAD	63.59589	-149.60706	948.3	5.5		39		began season	05/31/2012	06/15/2012		1	05/27/2012 - 06/09/2012	NA								NA			1	99	99	99	"LD 831 Sound Pressure Level Meter, 1/2"" free-field microphone, R05 continuous recorder, 1X100 Ahr Lead Acid Battery #?, 2X 20 W PV, SunSaver 10, Davis Weather Array"	1	22	2316	16959	118266	59633	"wind 10, T/RH 4"	Alaska Range Interior Mountains and Valleys	"2 Calibration recordings (calibrater went off during first calibration recording). Weird sound quality, came in breaking up. Station in Canyon.  Steam on other side of road."
DENA	Hines Creek	INES	2012	1	ROAD	63.71061	-149.07915	861.2	5.5		10		winter	11/28/2011	03/23/2012	"11/28/11, 02/08/12, 02/11/12, 03/23/12"	1	02/12/2012 - 02/21/2012	2/12/12 - 2/21/12	02/16/2012	07:02	07:57	08:47	17:32	18:23	19:18	9	Davyd Betchkal	0	0	99	99	99	"first LD 831 Sound Pressure Level Meter, 1"" free-field microphone w/ low-noise preamplifier, EDIROL R-05 continuous recorder, 2X 25 Ahr Lead Acid Batteries, 2X 45 W PV replaced with LD 831 Sound Pressure Level Meter, 1/4"" free-field microphone, EDIROL R-05 continuous recorder, 2X 25 Ahr LiFePO4 Batteries, 2X 45 W PV"	1	180	2317	16961	118683	64389	1	Alaska Range Front Range	
DENA	Kichatna Mountains	KICH	2012	0	LOW	62.34868	-152.44975	637.2	5.5		17		"began season, SLM became BULL R05 became CARL"	05/19/2012	06/18/2012	"5/19/12, 6/18/12"	1	05/20/2012 - 06/17/2012	5/20/12 - 6/17/12	05/27/2012	none	none	03:28	22:46	none	none	29	Davyd Betchkal	0	1	5/20/12 - 6/03/12	15	Davyd Betchkal	"LD 831 Sound Pressure Level Meter, 1/2"" free-field microphone, R05 continuous recorder, 2X LiFePO4 batteries, 1X 55 W PV, SunSaver 20"	1	0	2041	15303	112827	63485	"wind 12, T/RH 5"	Alaska Range South Central Mountains and Valleys	
DENA	McKinley River	MCRI	2012	0	LOW	63.61935	-151.63177	276	6.6		16		began season (late)	07/20/2012	09/11/2012	"7/20/12, 8/07/12, 9/11/12"	1	07/21/2012 - 09/04/2012	7/21/12 - 9/10/12	08/15/2012	none	02:53	04:17	22:09	23:33	00:18	51	Davyd Betchkal	1	1	"7/21/12 - 07/31/12, 8/08/12 - 8/18/12"	22	Davyd Betchkal	"LD 831 Sound Pressure Level Meter, 1/2"" free-field microphone, R05 continuous recorder, 1X 100 Ahr Lead Acid Battery, SunSaver-6, 2X 20 W PV"	1	252	2040	10091	112782	64387	"wind 6, T/RH 11"	Kuskokwim Alluvial Fans and Floodplains	"07/20 site visit:  Muskeg with black spruce, native cranberry, tamarack…  It worked well to use a long zip-tie for mountin solar panels to a snag.  A minor issue involved forgetting to pack a battery cable, which was fabricated instead.  Very still.  No wind, no water, no bird song.   08/07 site visit:  Fastest site visit in history, 35 minutes from setting down the helicopter to picking it back up. "
DENA	Polychrome Mountain 1	POL1	2012	0	ROAD	63.52991	-149.86674	968.5	4.6		18		was POL2	06/29/2012	07/13/2012		1	06/30/2012 - 07/12/2012	NA								NA			1	99	99	99	"LD 831 Sound Pressure Level Meter, 1/2"" free-field microphone, R05 continuous recorder, 2X 35 Ahr Lead Acid Battery 35-6, 35-7, 2X 20 W PV, SunSaver 10, Davis Weather Array  "	1	26	2317	16961	118683	64384	"wind 10, T/RH 4"	Alaska Range Interior Mountains and Valleys	
DENA	Polychrome Mountain 2	POL2	2012	0	ROAD	63.52805	-149.879	1072.3	5		18		was HOG3	06/15/2012	06/29/2012		1	06/16/2012 - 06/28/2012	NA								NA			1	99	99	99	"LD 831 Sound Pressure Level Meter, 1/2"" free-field microphone, R05 continuous recorder, 2X 35 Ahr Lead Acid Battery #? #?, 2X 20 W PV, SunSaver 10, Davis Weather Array  "	1	27	2317	16961	118683	64384	"wind 10, T/RH 4"	Alaska Range Interior Mountains and Valleys	
DENA	Polychrome Mountain 3	POL3	2012	0	ROAD	63.5261	-149.005	1121.2	5.6		19		was HIG1	08/10/2012	08/24/2012		0		NA	NA							NA			0	99	99	99	"LD 831 Sound Pressure Level Meter, 1/2"" free-field microphone, R05 continuous recorder, 1X100 Ahr Lead Acid Battery, 2X 20 W PV, SunSaver 10, Davis Weather Array"	1	24	2317	16961	118683	64384	"wind 10, T/RH 4"	Alaska Range Interior Mountains and Valleys	
DENA	Polychrome Mountain 4	POL4	2012	0	ROAD	63.51527	-149.95381	1073	5.4		19		was IGL1	06/15/2012	06/29/2012		1	06/16/2012 - 06/26/2012	NA								NA			1	99	99	99	"LD 831 Sound Pressure Level Meter, 1/2"" free-field microphone, R05 continuous recorder, 1X100 Ahr Lead Acid Battery #100-4, 2X 20 W PV, SunSaver 10, Davis Weather Array"	1	10	2316	16959	118266	59633	"wind 3, T/RH 2"	Alaska Range Interior Mountains and Valleys	Road going W - Comes around a corner then gradual down hill to another corner
DENA	Primrose Ridge 1	PRM1	2012	0	ROAD	63.73306	-149.31073	848.5	5.4		15		Was EFK1	07/13/2012	07/26/2012		1	07/14/2012 - 07/17/2012	NA								NA			1	99	99	99	"LD 831 Sound Pressure Level Meter, 1/2"" free-field microphone, R05 continuous recorder, 1X100 Ahr Lead Acid Battery #100-4, 2X 20 W PV, SunSaver 10, Davis Weather Array"	1	12	2316	16959	118266	59633	"wind 3, T/RH 2"	Alaska Range Front Range	
DENA	Primrose Ridge 2	PRM2	2012	0	ROAD	63.73175	-149.34088	949	5.4		46		Was TEK1	08/10/2012	08/24/2012		0		NA	NA							NA			0	99	99	99	"LD 831 Sound Pressure Level Meter, 1/2"" free-field microphone, R05 continuous recorder, 1X100 Ahr Lead Acid Battery #100-4, 2X 20 W PV, SunSaver 10, Davis Weather Array"	1	12	2316	16959	118266	59633	"wind 3, T/RH 2"	Alaska Range Front Range	
DENA	Sanctuary River 1	SAN1	2012	0	ROAD	63.72622	-149.46123	747	5.7		19		"Was POL3, 831 10 replaced with 7"	08/24/2012	09/07/2012		1	08/25/2012 - 09/06/2012	NA								NA			1	99	99	99	"LD 831 Sound Pressure Level Meter, 1/2"" free-field microphone, R05 continuous recorder, 2X35 Ahr Lead Acid Batteries 35-10 & 55-6, 2X 20 W PV, SunSaver 10, Davis Weather Array"		26.6	1996	16961	118683	64384	"wind 10, T/RH 4"	Alaska Range Interior Mountains and Valleys	
DENA	Sanctuary River 3	SAN3	2012	0	ROAD	63.709	-149.49207	801.5	15	5.5	20		began season	04/20/2012	07/04/2012	"04/19/12, 04/20/12, 5/31/12, 6/10/12, 07/04/12"	1	"04/21/2012 - 05/13/2012, 05/15/2012 - 06/09/2012, 06/11/2012 - 06/21/2012, 06/23/2012 - 07/03/2012"	NA								NA			1	99	99	99	"LD 831 Sound Pressure Level Meter, 1/2"" free-field microphone, R05 continuous recorder, 1X 100 Ahr Lead Acid Battery, SOLAR CONTROLLER?, 1X 80 W PV"	1		1448	12518	106038	63489	no numbers assigned	Alaska Range Interior Mountains and Valleys	"River not originally audible, but it was on the 06/10 site visit."
DENA	Sushana Ridge	SUSH	2012	0	LOW	63.74123	-149.58362	1210.5	5.5		18		began season	05/14/2012	07/04/2012	"5/14/12, 6/10/12, 07/04/12"	1	"05/15/2012 - 05/30/2012, 06/11/2012 - 06/29/2012, 07/01/2012 - 07/03/2012"	6/11/12 - 7/02/12	06/18/2012	none	none	02:35	23:24	none	none	22	Davyd Betchkal	0	1	6/11/12 - 6/17/12	7	Davyd Betchkal	"LD 831 Sound Pressure Level Meter, 1/2"" free-field microphone, R05 continuous recorder, 2X LiFePO4 batteries, SS-20, 1X 62 W PV"	1	30	2759	21296	128879	59630	"wind 4, T/RH 10"	Alaska Range Front Range	"06/10 site visit:  Solar panel blown over (see photos…)  Reset with better pcord tethers, same direction but lower angle.  Bag was torn from gaffer's tape -- a good way to secure it would be worthwhile.  R05 settings reset by power surge??  Numeric data possibly off by 3 days (read June 7th)  A group of 10-15 (?) Long-tailed Jaegers flying about the station alarm calling.  "
DENA	Teklanika River 1	TEK1	2012	0	ROAD	63.71428	-149.52647	774.8	5.4		15		Was PRI1	07/26/2012	08/10/2012		1	"07/29/2012 - 07/30/2012, 08/01/2012 - 08/09/2012"	NA								NA			1	99	99	99	"LD 831 Sound Pressure Level Meter, 1/2"" free-field microphone, R05 continuous recorder, 1X100 Ahr Lead  Acid Battery #100-6, 2X 20 W PV, SunSaver 10, Davis Weather Array"	1	12	2316	16959	118266	59633	"wind 3, T/RH 2"	Alaska Range Interior Mountains and Valleys	"No calibrator, so couldn't get calibration tone, calibrate LD, or get actual input level.  Input leve of 15 is what was on R-05"
DENA	Toe of the Kanikula Glacier	TKAN	2012	0	HIGH	62.70562	-150.91173	352.5	5.8		69		began season	05/19/2012	07/09/2012	"5/19/12, 6/18/12, 7/09/12"	1	05/20/2012 - 05/27/2012	5/20/12 - 5/27/12	05/23/2012	none	01:43	03:33	22:14	00:03	none	8	Davyd Betchkal	0	1	5/20/12 - 5/27/12	8	Davyd Betchkal	"LD 831 Sound Pressure Level Meter, 1/2"" free-field microphone, R05 continuous recorder, 2X LiFePO4 batteries, 2X 20 W PV, SunSaver 10"	1	225	1447	19211	125976	64388	"wind 6, T/RH 7"	Cook Inlet Braided Floodplains and Stream Terraces	
DENA	Upper West Branch Toklat	UWBT	2012	0	LOW	63.40903	-150.03513	1215.4	5.5		12		"ended season, SLM was SUSH, R05 was TKAN"	07/28/2012	09/13/2012	"7/28/12, 8/18/12, 9/13/12"	1	"07/29/2012 - 08/17/2012, 08/19/2012 - 08/27/2012"	7/29/12 - 8/28/12	08/13/2012	01:29	03:48	04:51	21:18	22:21	00:41	30	Davyd Betchkal	1	1	8/19/12 - 8/27/12	9	Davyd Betchkal	"LD 831 Sound Pressure Level Meter, 1/2"" free-field microphone, R05 continuous recorder, 2X LiFePO4 batteries, 2X 20 W PV, SunSaver 20"	1	323.6	2759	21296	128879	64388		Alaska Range Interior Mountains and Valleys	07/28 site visit:  On the same location as the previous site.  2x Beavers passing  west directly overhead during setup.
DENA	Upper Yentna Glacier	UYEN	2012	0	LOW	62.88545	-151.64183	1574.9	5.4		41		"began season, SLM became CARL R05 became BULL"	05/19/2012	06/18/2012	"5/19/12, 6/18/12"	1	05/20/2012 - 06/17/2012	5/20/12 - 6/17/12	06/03/2012	none	none	03:11	22:48	none	none	28	Davyd Betchkal	5	1	5/20/12 - 5/30/12	9	Davyd Betchkal	"LD 831 Sound Pressure Level Meter, 1/2"" free-field microphone, R05 continuous recorder, 2X LiFePO4 batteries, 2X 20 W PV, SunSaver 20"	1	190	1716	12490	108542	63863	"wind 5, T/RH 6"	Alaska Range High Mountains	
DENA	Birch Creek	BICR	2013	0	LOW	63.44044	-151.65901	418.8	5.5		18		"ended season, was FLUM"	07/04/2013	08/21/2013	"7/4/2013, 8/1/13, 8/21/13"	1	"07/05/2013 - 07/31/2013, 08/02/2013 - 08/20/2013"									46	Davyd Betchkal	1	1	"7/05/13 - 7/15/13, 8/02/13 - 8/12/13 "	22	Scot Sharp	"LD 831 Sound Pressure Level Meter, 1/2"" free-field microphone, R05 continuous recorder, Lead Acid batteries, 2X 20 W PV, SunSaver 20L"		25	2649	19209	126202	59630	"wind 10, T/RH 10"	Kuskokwim Alluvial Fans and Floodplains	
DENA	Cabin Peak	CABN	2013	0	LOW	63.57665	-150.00888	998.5	5.5		18		"began season, ended season"	06/05/2013	08/19/2013	"6/5/13, 7/1/13, 7/11/13, 8/19/13"	1	"06/06/2013 - 06/18/2013, 07/12/2013 - 07/25/2013, 08/03/2013 - 08/17/2013"	7/11/13 - 8/17/13	07/24/2013		02:00	03:49	22:24	00:13		42	Scot Sharp	0	1	"6/06/13 - 06/16/13, 07/12/13 - 07/22/13"	22	"Davyd Betchkal, Patricia DelVecchio"	"LD 831 Sound Pressure Level Meter, 1/2"" free-field microphone, R05 continuous recorder, 2X LiFePO4 batteries, 2X 20 W PV, SunSaver 20 #03, Davis Weather Array "	1	0.4	1447	19211	125976	64388	"wind 16 , T/RH 12"	Alaska Range Interior Mountains and Valleys	
DENA	Carlson Creek	CARL	2013	0	LOW	63.24189	-150.83624	1324.7	6.5		16		"ended season, was LMcR"	08/01/2013	08/28/2013	"8/1/13, 8/28/13"	1	08/02/2013 - 08/27/2013		08/07/2013	none	03:28	04:38	21:41	22:50	none	25	Scot Sharp	0	1	8/02/13 - 8/12/13	11	Davyd Betchkal	"LD 831 Sound Pressure Level Meter, 1/2"" free-field microphone, R05 continuous recorder, 2X25Ahr LiFePO4 batteries, 1X 62 W PV, SunSaver 20 #02, Davis Weather Array"	1	343	1996	15261	111502	64386	"wind 17, T/RH 1"	Alaska Range Interior Mountains and Valleys	
DENA	Fang Mountain	FANG	2013	0	LOW	63.56617	-149.20564	1523.39	6.1		42		"ended season, was UPEL"	06/29/2013	08/19/2013	"6/29/13, 7/24/13, "	1	"06/28/2013 - 07/23/2013, 07/25/2013 - 08/18/2013"		07/13/2013	none	none	03:15	22:51	none	none	33	Scot Sharp	0	1	"6/28/13 - 7/08/13, 7/25/13 - 8/04/13"	22	Scot Sharp	"LD 831 Sound Pressure Level Meter, 1/2"" free-field microphone, R05 continuous recorder, 2X LiFePO4 batteries, 2X 20 W PV, SunSaver 20 #01, Davis Weather Array "	1	0.2	2316	16961	118683	59633	"wind 11, T/RH 11"	Alaska Range High Mountains	
DENA	Flume Creek	FLUM	2013	0	MEDIUM	63.96474	-150.81366	161.2	5.5		18		"began season, became BICR"	05/31/2013	07/03/2013	"5/31/13, 7/03/13"	1	06/01/2013 - 07/02/2013	5/31/13 - 7/03/13	06/06/2013	none	none	02:49	23:15	none	none	33	Scot Sharp	0	1	6/01/13 - 6/11/13	11	Thompson Bishop	"LD 831 Sound Pressure Level Meter, 1/2"" free-field microphone, R05 continuous recorder, 1X100Ahr Lead Acid battery, 2X 20 W PV, SunSaver 20L new no number, Davis Weather Array "	1	24.3	2649	19209	126202	59630	"wind 10, T/RH 10"	Kuskokwim Minchumina Basin	"05/31 - Site visit: lesser yellow legs, wilson's snipe, Swainson's Thrush. Black bear seen ~4mi from site. Low black spruce forest edged with taller spruce and birtch. Soft tundra floor w/ lingon berries. Native cranberry and la? Tea. Landing spot about 75m distant on a grassy former lake"
DENA	Igloo Canyon 1	IGL1	2013	0	ROAD	63.59588	-149.60712	962.6			16		"began season, ended season"	06/04/2013	09/18/2013	"6/4/13, 7/1/13, 7/11/13, 8/19/13, 09/18/13"	1	"06/05/2013 - 06/30/2013, 07/02/2013 - 07/10/2013, 07/12/2013 - 07/19/2013, 08/03/2013 - 08/18/2013, 08/20/2013 - 09/05/2013, 09/07/2013 - 09/17/2013"									NA			1	99	99	99	"LD 831 Sound Pressure Level Meter, 1/2"" free-field microphone, R05 continuous recorder, 2X 35Ahr lead acid batteries, 2X 20 W PV, SunSaver 10 #14, Davis Weather Array "	1	0.1	1448	12518	106038	63485	"wind 8, T/RH 18"	Alaska Range Interior Mountains and Valleys	
DENA	Hines Creek	INES	2013	1	ROAD	63.710717	-149.0789667	766.27	5.5		17		winter	12/04/2013	04/23/2014	"12/4/14, 1/31/14, 2/19/14, 2/28/14, 3/24/14, 4/23/14"	1	"12/05/2013 - 12/17/2013, 01/18/2014 - 01/30/2014, 02/01/2014 - 02/02/2014, 02/20/2014 - 02/27/2014, 03/01/2014 - 03/16/2014, 03/25/2014 - 04/22/2014"									55	Davyd Betchkal	0	1				"LD 831 Sound Pressure Level Meter, 1/2"" free-field microphone, R05 continuous recorder, 4X3 3.4 V LiFePO4 cells in series, 2X 20 W PV, SunSaver 20L  #02, Davis Weather Array"	1	0	2017	10092	126172	63489	"wind 16 , T/RH 11"	Alaska Range Front Range	
DENA	Lower McKinley River	LMCR	2013	0	LOW	63.78482	-151.61665	223.1	6.3		47		"began season, became CARL"	05/31/2013	07/03/2013	"5/31/13, 7/03/13"	1	06/01/2013 - 06/23/2013	6/01/13 - 6/24/13	06/24/2013	none	none	02:45	23:29	none	none	24	Scot Sharp	0	1	6/01/13 - 6/11/13	11	Patricia DelVecchio	"LD 831 Sound Pressure Level Meter, 1/2"" free-field microphone, R05 continuous recorder, 2X25Ahr LiFePO4 batteries, 2X ?? W PV, SunSaver 20 #01, Davis Weather Array"	1	328	1996	15261	111502	64386	"wind 17, T/RH 6"	Kuskokwim Alluvial Fans and Floodplains	05/31 - Site visit: an area in the middle of a soft muskeg. 
DENA	Mount Lee	MLEE	2013	0	MEDIUM	62.88357	-150.47589	865.4	6.2		18		"began season, became GAARWALK"	05/09/2013	07/07/2013	"5/9/13, 6/8/13, 7/7/13"	1	05/10/2013 - 06/24/2013		05/15/2013	none	02:09	03:48	22:08	23:47	none	30	Scot Sharp	0	1	5/10/13 - 5/20/13	11	Davyd Betchkal	"LD 831 Sound Pressure Level Meter, 1/2"" free-field microphone, R05 continuous recorder, 2X25Ahr LiFePO4 batteries, 2X 20 W PV, SunSaver 20 #01, Davis Weather Array"	1	12.7	2040	10091	112782	64389	"wind 3, T/RH 2"	Alaska Range South Central Mountains and Valleys	"05/09 - Site visit: Heard white-tailed ptarmigan, snow sliding in small chunks close (60m). Faint distant (110m?) running water under snow. Alder slope to the north. Wind again down valley (east) directed essentually down the ridge."
DENA	Toe of the Tokositna	TOKO	2013	1	VERY HIGH	62.66225	-150.82127	839.2	5.9		18		winter	03/08/2013	05/09/2013	"3/8/13, 5/9/13"	0		NA	NA							NA			0	99	99	99	"LD 831 Sound Pressure Level Meter, 1/2"" free-field microphone, R05 continuous recorder, 1X100 Ahr Lead Acid Battery #100-5, 1X 45 W PV, SunSaver 10 #12, Davis Weather Array"	1	5.6	1718	12517	109570	63489	"wind 2, T/RH 9"	Cook Inlet Braided Floodplains and Stream Terraces	"03/08 site visit:  Raven, Hairy woodpecker, (Black-capped?) chickadee, heard.  Snow falling from balsam poplar south of station.  K2 cessna seen circling over moose as we approached, Beaver (or two) NW bound into range at approximately ridgetop height (4500 - 5000 MSL?)   Mosquitos seen in plenty. "
DENA	Upper Eldridge Glacier	UPEL	2013	0	MEDIUM	63.05705	-150.4762	2089.1	5.5		18		"began season, became FANG"	05/09/2013	06/08/2013	"5/9/13, 6/8/13"	1	05/10/2013 - 06/07/2013		05/27/2013	none	none	03:29	22:37	none	none	30	Scot Sharp	0	1	5/10/13 - 5/20/13	11	Davyd Betchkal	"LD 831 Sound Pressure Level Meter, 1/2"" free-field microphone, R05 continuous recorder, 2X25Ahr LiFePO4 batteries, 2X 20 W PV, SunSaver 20 #04, Davis Weather Array"	1	0.2	2316	16961	118683	59633	"wind 11, T/RH 11"	Alaska Range High Mountains	"5/9 - Site visit: 10:35 fast n bound ~9000ft MSL prop. Avalanche across valley, high frequency mostly snow. Small snow slide closer, below. Lots of snow on arrival, day ~2oC. Wind down valley from ~ south. ~75m to ridge above station to the east  "
GAAR	Walker Lake	WALK	2013	0	na	67.05972222	-154.3008333	209.943			17			08/22/2013	09/13/2013	"8/22/13, 9/13/13"	1	08/22/2013 - 09/11/2013									21	Davyd Betchkal	0	1	99	99	99	"LD 831 Sound Pressure Level Meter, 1/2"" free-field microphone, R05 continuous recorder, 2X Li-Ion Polymer batteries, 1X 62 W PV, LIND solar controller, Davis Weather Array"	1		2759						
NOAT	Agashashok River	AGGI	2013	0	na	67.47208	-162.2242333	89.3	5.5		12			08/01/2013	09/17/2013	"8/1/13, 9/17/13"	1	"08/02/2013 - 08/25/2013, 08/28/2013 - 09/16/2013"	8/02/13 - 9/16/13	08/24/2013		04:39	05:50	21:53	23:04		45	Davyd Betchkal	1	1	99	99	99	"LD 831 Sound Pressure Level Meter, 1/2"" free-field microphone, R05 continuous recorder, 1X100Ahr Lead Acid battery, 1X 80 W PV, SunSaver 10 #13, Davis Weather Array"	1	0	2107	10092	126172	64387	"wind 2, T/RH 7"		
NOAT	Cutler River	CUTL	2013	0	na	67.66269	-158.17857	462.55			17			08/03/2013	03/01/2014	"8/3/13, 3/01/13"	0		NA	NA							NA			1	99	99	99		0	NA	2040	10091	112782	22259	"wind 13, T/RH 6"		
NOAT	Kugururok River	KUGU	2013	0	na	67.9639	-161.9582167	83.9	5.5		16			08/02/2013	09/17/2013	"8/2/13,  9/17/13"	1	08/03/2013 - 08/26/2013									17	Davyd Betchkal	5	1	99	99	99	"LD 831 Sound Pressure Level Meter, 1/2"" free-field microphone, R05 continuous recorder, 1X100Ahr Lead Acid battery, 1X 80 W PV, SunSaver 20L  SN#12411895, Davis Weather Array"	1	198	2097	15358	114175	63489	"wind 5, T/RH 5"		
NOAT	Sapun Creek	SAPN	2013	0	na	67.89566667	-160.3581333	160.38	11.5	possibly dBC or Z?				08/16/2013		"8/16/13, NA"	0		NA	NA							NA			1	99	99	99	"LD 831 Sound Pressure Level Meter, 1/2"" free-field microphone, R05 continuous recorder, 1X100Ahr Lead Acid battery, 1X 80 W PV, SunSaver 20L#12411893, Davis Weather Array"	0	NA	2096	16431	113848	64384	"wind 15, T/RH 4"		
DENA	Backside Lake	BACK	2014	0	VERY HIGH	62.86065	-150.68047	863	6.2		60		"began season, ended season"	05/14/2014	09/11/2014	"5/14/14, 6/18/14, 7/14/14, 8/16/14, 9/11/14"	1	"05/15/2014 - 06/17/2014, 06/19/2014 - 07/05/2014, 07/15/2014 - 08/15/2014, 08/17/2014 - 09/03/2014"										Davyd Betchkal		1				"LD 831 Sound Pressure Level Meter, 1/2"" free-field microphone, R05 continuous recorder, 2X25Ahr LiFePO4 batteries, 2X 20 W PV, GENASUN GV-5 solar controller #048795, Davis Weather Array"	1	5.3	1716	12490	LW136190	63485	"wind UNMARKED, T/RH ??"		
DENA	Blind Creek	BLCR	2014	0	MEDIUM	63.21841	-149.66107	1061	5.5		8	1.31	"began season, ended season"	06/05/2014	08/16/2014	"6/5/14, 7/12/14, 8/16/14"	1	"06/06/2014 - 07/04/2014, 07/13/2014 - 07/19/2014"									38	Patricia DelVecchio		1				"LD 831 Sound Pressure Level Meter, 1/2"" free-field microphone, R05 continuous recorder, 2X Li-Ion Polymer batteries, 1X 62 W PV, LIND solar controller, Davis Weather Array"	1	0.2	2759	16922	125942	22255	"wind 4, T/RH 10"		
DENA	Hauke Creek	HAUK	2014	0	LOW	63.25879	-151.64966	710	5.5		10	1.31	"began season, became STAM"	06/05/2014	06/28/2014	"6/5/14, 6/28/14"	1	06/06/2014 - 06/27/2014		06/16/2014	none	none	02:55	23:20	none	none	22	Patricia DelVecchio	0	1	06/06/14 - 06/24/14	12	Patricia DelVecchio	"LD 831 Sound Pressure Level Meter, 1/2"" free-field microphone, R05 continuous recorder, 2X Li-Ion Polymer batteries, 1X 62 W PV, LIND solar controller, Davis Weather Array"	1	0.3	2316	16961	118683	22098	"wind 18, T/RH 1"		
DENA	Hot Slough	HOTS	2014	0	LOW	63.629831	-152.017988	236			17		"began season, ended season"	05/31/2014	08/18/2014	"5/31/14, 6/28/14, 7/30/14, 8/18/14"	1	"06/01/2014 - 06/02/2014, 06/29/2014 - 07/05/2014, 07/31/2014 - 08/17/2014"									18	Davyd Betchkal	1	0				"LD 831 Sound Pressure Level Meter, 1/2"" free-field microphone, R05 continuous recorder, 2X25Ahr LiFePO4 batteries, 2X 20 W PV, GV-5 solar controller, Davis Weather Array.  Originally run with a 100 Ahr lead acid battery, but switched out mid season due to the effort required to get the battery ashore."	1	2.5	2317	16959	118266	64389	"wind 20, T/RH 7"		
DENA	Lower Dall Glacier	LDAL	2014	0	LOW	62.55317	-152.09251	1378	5.7		16		"began season, became YEGL"	05/14/2014	06/05/2014	"5/14/14, 6/5/14"	1	05/15/2014 - 06/04/2014									21	Patricia DelVecchio	0	1	5/15/14 - 06/04/14	11	Davyd Betchkal	"LD 831 Sound Pressure Level Meter, 1/2"" free-field microphone, R05 continuous recorder, 2X25Ahr LiFePO4 batteries, 2X 20 W PV, GV-5 solar controller, Davis Weather Array"	1	309	2041	15303	112827	44983	"wind UNMARKED, T/RH 12"		
DENA	Mountain Vista	MtVI	2014	1	ROAD	63.71556667	-149.2538333	850.3	5.5		13?		winter	02/14/2014	04/10/2014	"2/14/14, 03/06/14, 04/10/14"	1	02/15/2014 - 04/09/2014	NA	NA							NA			1	99	99	99	"LD 831 Sound Pressure Level Meter, 1/2"" free-field microphone, R05 continuous recorder, 3X 12V LiFePO4, 1X 80 W PV on a tripod, SunSaver 20  #??, Davis Weather Array"	1	63.8	2649	19209	126202	64386			
DENA	McKinley Park Airstrip	PAIN	2014	0	FRONTCOUNTRY	63.73178	-148.91107	533	5.5		15		"began season, ended season"	05/07/2014	09/18/2014	"5/7/14, 5/13/14, 5/16/14, 5/21/14, 5/27/14, 5/28/14, 5/29/14, 6/4/14, 6/19/14, 7/3/14, 7/10/14, 7/17/14, 7/31/14, 8/14/14, 8/28/14"	1	"05/08/2014 - 05/12/2014, 05/14/2014 - 05/27/2014, 05/29/2014 - 06/18/2014, 06/20/2014 - 07/02/2014, 07/04/2014 - 07/30/2014, 08/01/2014 - 09/10/2014, 09/12/2014 - 09/17/2014"									NA	Patricia DelVecchio		1	99	99	99	"LD 831 Sound Pressure Level Meter, 1/2"" free-field microphone, R05 continuous recorder, 2X25Ahr LiFePO4 batteries, 1X 55 W PV, SunSaver 10 #10463244, Davis Weather Array, (camera kit: Reconyx PC800 HyperFire, SK3 Sound Trigger, 1x 25Ahr LiFePO4 battery)"	1	0.4	1447	19211	125976	63489	"wind 12, T/RH 11"		
DENA	Stampede Airstrip	STAM	2014	0	MEDIUM	63.74887	-150.33002	565.6	5.5		15	1.04	"was HAUK, ended season"	06/28/2014	08/18/2014	"6/28/14, 7/30/14, 8/18/14"	1	06/29/2014 - 07/29/2014		07/23/2014	none	01:37	03:42	22:28	00:34	none	50	Davyd Betchkal	0	1				"LD 831 Sound Pressure Level Meter, 1/2"" free-field microphone, R05 continuous recorder, 2X Li-Ion Polymer batteries, 1X 62 W PV, LIND solar controller, Davis Weather Array"	1	0.1	2316	16961	118683	22098	"wind 18, T/RH 1"		
DENA	Yentna-Lacuna Confluence	YEGL	2014	0	LOW	62.72428	-151.69586	779	5.6		28	1.29	"was LDAL, ended season"	06/05/2014	07/12/2014	"6/5/14, 7/12/14"	1	06/06/2014 - 07/11/2014									35	Patricia DelVecchio	1	1	99	99	99	"LD 831 Sound Pressure Level Meter, 1/2"" free-field microphone, R05 continuous recorder, 2X25Ahr LiFePO4 batteries, 2X 20 W PV, GV-5 solar controller, Davis Weather Array"	1	304.5	2041	15303	112827	44983	"wind UNMARKED, T/RH 12"		
GAAR	Walker Lake Swan Island	MWAL	2014	0	na	67.12463	-154.33174	218	5.6		15	1.33	"began season, became NWAL"	06/10/2014	06/30/2014	"6/10/14, 6/30/14"	1	06/11/2014 - 06/29/2014									19	Davyd Betchkal	2	1	99	99	99	"LD 831 Sound Pressure Level Meter, 1/2"" free-field microphone, R05 continuous recorder, 2X25Ahr LiFePO4 batteries, 1X 62W PV, SS-20 #02 solar controller, Davis Weather Array"	1	0.3	1996	15261	111502	64386	"wind 17, T/RH 8"		
GAAR	Narvak Lake North	NARV	2014	0	na	66.94509	-155.63939	186	5.4		15	1.3	"began season, became SELB"	06/10/2014	06/30/2014	"6/10/14, 6/30/14"	1	06/11/2014 - 06/29/2014									19	Davyd Betchkal	0	1	99	99	99	"LD 831 Sound Pressure Level Meter, 1/2"" free-field microphone, R05 continuous recorder, 2X25Ahr LiFePO4 batteries, 2X 20 W PV, SS-20 #01 solar controller, Davis Weather Array"	1	0.1	2097	15302	116846	64387	"wind 19, T/RH 22"		
GAAR	Nutuvukti Lake North	NNUT	2014	0	na	67.00975	-154.70158	206	11.7			1.16	"was NUTU, "	06/30/2014	08/04/2014	"6/30/14, 08/04/14"	1	07/01/2014 - 08/03/2014									34	Davyd Betchkal	2	1	99	99	99	"LD 831 Sound Pressure Level Meter, 1/2"" free-field microphone, R05 continuous recorder, 2X25Ahr LiFePO4 batteries, 1X 62W PV, GV-5, Davis Weather Array"	1	359.9	1718	12517	109570	43554	"wind 16, T/RH 13"		
GAAR	Nutuvukti Lake South	NUTU	2014	0	na	66.9688	-154.70372	218	6.3		15	1.29	"began season, became NNUT"	06/10/2014	06/30/2014	"6/10/14, 6/30/14"	1	"06/11/2014 - 06/12/2014, 06/16/2014 - 06/18/2014, 06/22/2014 - 06/23/2014"									19	Davyd Betchkal	0	1	99	99	99	"LD 831 Sound Pressure Level Meter, 1/2"" free-field microphone, R05 continuous recorder, 2X25Ahr LiFePO4 batteries, 1X 62W PV, GV-5, Davis Weather Array"	1	0.1	1718	12517	109570	43554	"wind 16, T/RH 13"		
GAAR	Walker Lake North	NWAL	2014	0	na	67.20123	-154.53601	214	6		17	1.26	"was MWAL, "	06/30/2014	08/04/2014	"6/30/14, 08/04/14"	1	07/01/2014 - 08/03/2014									33	Davyd Betchkal	3	1	99	99	99	"LD 831 Sound Pressure Level Meter, 1/2"" free-field microphone, R05 continuous recorder, 2X25Ahr LiFePO4 batteries, 1X 62W PV, SS-20 #02 solar controller, Davis Weather Array"	1	1.1	1996	15261	111502	64386	"wind 17, T/RH 8"		
GAAR	Narvak Lake South	SELB	2014	0	na	66.89615	-155.6646	176	5.4		15	1.24	"was NARV, "	06/30/2014	08/04/2014	"6/30/14, 08/04/14"	1	07/01/2014 - 08/03/2014									34	Patricia DelVecchio	0	1	99	99	99	"LD 831 Sound Pressure Level Meter, 1/2"" free-field microphone, R05 continuous recorder, 2X25Ahr LiFePO4 batteries, 2X 20 W PV, SS-20 #01 solar controller, Davis Weather Array"	1	0.2	2097	15302	116846	64387	"wind 19, T/RH 22"		
NOAT	Kugururok River	KUGU	2014	0	na	67.97138	-161.93248	81	5.7		17	1.3	"was NNUT, ended season"	09/11/2014	10/01/2014	"9/11/14, 10/01/14"	1	09/12/2014 - 10/01/2014												1	99	99	99	"LD 831 Sound Pressure Level Meter, 1/2"" free-field microphone, R05 continuous recorder, 2X25Ahr LiFePO4 batteries, 1X 62W PV, SS-20 #02 solar controller, Davis Weather Array"	1	0.4	1996	15261	111502	64386	"wind 17, T/RH 8"		
NOAT	Sapun Creek	SAPN	2014	0	na	67.90017	-160.34048	159	6.1		16	1.25	"was NWAL, ended season"	09/11/2014	10/01/2014	"9/11/14, 10/01/14"	1	09/12/2014 - 10/01/2014	9/12/14 - 10/01/14	09/21/2014	05:13	06:24	07:19	19:50	20:45	21:56	20	Davyd Betchkal	2	0	99	99	99	"LD 831 Sound Pressure Level Meter, 1/2"" free-field microphone, R05 continuous recorder, 2X25Ahr LiFePO4 batteries, 2X 20W PV, GV-5 #048792 solar controller, Davis Weather Array"	1	0.3	1718	12517	109570	43554	"wind 19, T/RH 22"		
DENA	Denali Visitor's Center	FRC1	2015	0	FRONTCOUNTRY	63.73061	-148.91576	549	5.5		45	1.36	began season	06/03/2015		"6/3/2015, "														1				"LD 831 Sound Pressure Level Meter, 1/2"" free-field microphone, R05 continuous recorder, 2X25Ahr LiFePO4 batteries, 2X 20W PV, GV-5 #048792 solar controller, Davis Weather Array"	1	288	1448	12518	106038	F0E6875	"wind 5, T/RH 10"		
DENA	Kantishna Airstrip	K5Z5	2015	0	FRONTCOUNTRY	63.54211	-150.99733	459	5.5		15	1.28	began season	06/04/2015	09/03/2015	"6/4/2015, 6/30/15, 7/27/15, 9/03/15"	1													1				"LD 831 Sound Pressure Level Meter, 1/2"" free-field microphone, R05 continuous recorder, 2X25Ahr LiFePO4 batteries, 2X 20W PV, GV-5 #048792 solar controller, Davis Weather Array"	1	0.2	1447	19211	125976	ZZ22259	"wind 4, T/RH 4"		
DENA	Muddy River	MURI	2015	0	LOW	63.97155	-151.60286	189	6.1		17	1.15	"began season, became THRI"	05/11/2015	07/15/2015	"5/11/15, 6/17/15, 7/15/15"	1		5/12/15 - 07/14/15	06/18/2015	none	none	02:43	23:29	none	none	63	Davyd Betchkal	0	1				"LD 831 Sound Pressure Level Meter, 1/2"" free-field microphone, R05 continuous recorder, 2X25Ahr LiFePO4 batteries, 2X 20W PV, GV-5 #048797 solar controller, Davis Weather Array"	1	0.1	2041	15303	112827	AZ59633	"wind 6, T/RH 5"		
DENA	HQ Phenology Site	PHEN	2015	0	na	63.72441	-148.97626	767			76	1.04	"began season, ended season"	03/27/2015	07/24/2015	"3/27/15, 4/10/15, 5/01/15, 5/21/15, 6/10/15, 7/05/15, 7/24/15"	0													1													
DENA	SW Fork Kahiltna Glacier	SKGL	2015	0	HIGH	62.92343	-151.30127	2018	5.5		27	1.2	began season	05/11/2015	06/24/2015	"5/11/15, Mountaineering Rangers Removed"	1		5/12/15 - 06/19/15	06/01/2015	none	none	03:20	22:46	none	none	41	Davyd Betchkal	1	0	99	99	99	"LD 831 Sound Pressure Level Meter, 1/2"" free-field microphone, R05 continuous recorder, 2X25Ahr LiFePO4 batteries, 1X 62W PV, GV-5 #5048790 solar controller, Davis Weather Array"	1	322.6	2649	19209	126202	ZZ22098	"wind 14, T/RH 2"		
DENA	Teklanika Thumb	TETH	2015	0	MEDIUM	63.92527	-149.45792	851	12.1		16	1.22	"was SKGL, ended season"	07/22/2015	08/25/2015	"7/22/15, 8/25/15"	1													1				"LD 831 Sound Pressure Level Meter, 1/2"" free-field microphone, R05 continuous recorder, 2X Li-ion Polymer batteries, 1X 62W PV, LIND solar controller, Davis Weather Array"	1	7.9	2649	19209	126202	ZZ22098	"wind 18, T/RH 1"		No data logged by SLM
DENA	Thorofare River	THRI	2015	0	LOW	63.41427	-150.43129	883	5.5		36	1.36	was MURI	06/05/2015	09/11/2015	"6/05/15, 7/01/15, 7/27/15, 9/03/15, 9/11/15"	1		6/06/15 - 9/10/15	07/30/2015	none	02:43	04:09	22:07	22:07	none	67	Davyd Betchkal	2	1				"LD 831 Sound Pressure Level Meter, 1/2"" free-field microphone, R05 continuous recorder, 2X Li-ion Polymer batteries, 1X 62W PV, LIND solar controller, Davis Weather Array"	1	0.4	2041	15303	112827	F0E6844	"wind 7, T/RH 12"		"Replaced due to no firmware issues and no data collected; previously was 831: 2759, preamp: 16922, mic: 125942; visited 6/5/15, 7/1/15, 7/27/15"
DENA	Upper Straightaway Glacier	UPST	2015	0	LOW	63.07981	-151.26624	2732	5.4		22		began season	05/11/2015	08/04/2015	"5/11/15, 6/17/15, 7/15/15, 0AE removed"	1													1				"LD 831 Sound Pressure Level Meter, 1/2"" free-field microphone, R05 continuous recorder, 2X25Ahr LiFePO4 batteries, 2X 20W PV, GV-5 #048798 solar controller, Davis Weather Array"	0	0.3	2317	16959	118266	BZ63489	"wind 20, T/RH 9"		
DENA	Wolf Creek	WOCR	2015	0	LOW	63.42908	-152.45248	290	5.5		34	1.34	began season	05/11/2015	07/15/2015	"5/11/15, 6/17/15, 7/15/15"	1	"05/12/2015 - 06/15/2015, 06/18/2015 - 07/07/2015, 07/09/2015 - 07/13/2015"	5/12/15 - 7/13/15	06/15/2015	none	none	02:55	23:24	none	none	56	Davyd Betchkal	1	1				"LD 831 Sound Pressure Level Meter, 1/2"" free-field microphone, R05 continuous recorder, 2X25Ahr LiFePO4 batteries, 1X 62W PV, GV-5 #048801 solar controller, Davis Weather Array"	1	0.4	2316	16961	118683	BZ64387	"wind 17, T/RH 3"		
KATM	Pfaff Mine	PFMI	2015	0	na	59.11098	-154.83687	600	5.2			1.57	began season	07/28/2015		"7/28/15, "														1				"LD 831 Sound Pressure Level Meter, 1/2"" free-field microphone, R05 continuous recorder, 'blue box' splitter, 1X LiFePO4 battery pack w/ incorporated controller, 1X 20W PV, Davis wind & direction sensors"	1	75.3	1657	12208	108783	BZ64461	"wind ??, no T/RH"		
KATM	Swikshak Lagoon	SWLA	2015	0	na	58.60592	-153.76837	6	6.3		30	1.52	began season	07/28/2015		"7/28/15, 8/31/15, "														1				"LD 831 Sound Pressure Level Meter, 1/2"" free-field microphone, R05 continuous recorder, 'blue box' splitter, 1X LiFePO4 battery pack w/ incorporated controller, 1X 20W PV, Davis wind & direction sensors"	1	348.6	1663	15309	112347	BZ64631	"wind 26, no T/RH"		
KATM	Valley of Ten-Thousand Smokes	VTTS	2015	0	na	58.31635	-155.22972	508			30		began season	07/28/2015		"7/28/15, "														1				"LD 831 Sound Pressure Level Meter, 1/2"" free-field microphone, R05 continuous recorder, 'blue box' splitter, 1X LiFePO4 battery pack w/ incorporated controller, 1X 20W PV, Davis wind & direction sensors"	1	217.2	1664	10133	134529	BZ63887	"wind ??, no T/RH"		
WRST	Black Mountain	BLMT	2015	1	na	62.40304	-143.66493	962.7	5.9		20		winter season - calibration ran out	03/24/2015	05/20/2015	"3/24/15, 5/20/15"	1													1				"LD 831 Sound Pressure Level Meter, 1/2"" free-field microphone, R05 continuous recorder, 2X25Ahr LiFePO4 batteries, 2X 20W PV, GV-5 #048792 solar controller, Davis Weather Array"	1	0.4	1995	16969	118764	22255	"wind 12, T/RH 11"		
WRST	Tanada Lake	TALA	2015	1	na	62.36743	-143.35178	901.7	5.6		21	1.43	winter season - calibration ran out	03/25/2015	05/20/2015	"3/24/15, 5/20/15"	1													1				"LD 831 Sound Pressure Level Meter, 1/2"" free-field microphone, R05 continuous recorder, 2X25Ahr LiFePO4 batteries, 2X 20W PV, GV-5 #048792 solar controller, Davis Weather Array"	1	0.2	2040	21296	128879	43554	"wind 18, T/RH 1"		
DENA	Foggy Pass	FOGG	2016	0	LOW	63.39704	-149.28358	902.8176	6		"15, 14"	1.3208	began season	06/14/2016	08/10/2016	"6/14/2016, 7/13/2016, 8/10/2016"														1				"LD 831 Sound Pressure Level Meter, 1/2"" free-field microphone, R05 continuous recorder, 2XLi-Poly batteries, 1X 62W PV,LIND #1 solar controller, Davis Weather Array"	1	0.1	1995	16969	118764	FOE684	"wind 8, T/RH 3"		
DENA	Denali Visitor Center	FRC1	2016	0	na	63.7306	-148.91576	551	6.2		17	1.54	began season	05/18/2016	06/09/2016	"5/18/2016, 6/9/2016"														1				"LD 831 Sound Pressure Level Meter, 1/2"" free-field microphone, R05 continuous recorder, 2X25Ahr LiFePO4 batteries, 2x20W PV, GV-5 #68482 solar controller, Davis Weather Array"	1	0.3	1663	15309	112337	ZZ22259	"wind 9, T/RH 14"		
DENA	MSLC Roundabout	FRC2	2016	0	na	63.73318	-148.91661	557	6.2		17		was FRC1	06/09/2016	06/28/2016	"6/9/2016, 6/28/2016"														1				"LD 831 Sound Pressure Level Meter, 1/2"" free-field microphone, R05 continuous recorder, 2X25Ahr LiFePO4 batteries, 2x20W PV, GV-5 #68482 solar controller, Davis Weather Array"	1	2.3	1663	15309	112337	ZZ22259	"wind 9, T/RH 14"		
DENA	Horseshoe Lake Trail	FRC3	2016	0	na	63.7385	-148.91232	531	6.1				was DENAFRC2				0													0													
DENA	Healy Ridge	HEAL	2016	0	LOW				6.1		8		began season	06/18/2016	09/07/2016	"6/18/2016, 7/17/2016, 8/10/2016"														1				"LD 831 Sound Pressure Level Meter, 1/2"" free-field microphone, R05 continuous recorder, 2X25Ahr LiFePO4 batteries, 1X 62W PV, GV-5 solar controller 68487, Davis Weather Array"	1	0.1	1996	15261	111502	BZ64633	"wind 14, T/RH 16"		
DENA	Muldrow Glacier	MULD	2016	0	LOW	63.27704	-150.34506	1212	6		"42, 14"	1.325	began season	06/24/2016	08/17/2016	"6/24/2016, 7/22/2016, 8/17/2016"														1				"LD 831 Sound Pressure Level Meter, 1/2"" free-field microphone, R05 continuous recorder, 2XLi-Poly batteries, 1X 62W PV,LIND solar controller 0932 (#2?), Davis Weather Array"	1	"0.4, 35.9"	2040	21296	128879	BZ63489	"wind 15, T/RH 23, REPLACED with wind 4, T/RH 25 on 7/22/2016"		
DENA	HQ Phenology Site	PHEN	2016	0	na	63.72441	-148.97633	758			55			03/22/2016	07/06/2016	"3/22/16, 4/7/16, 4/29/16, 5/31/16, 6/17/16, 7/6/16"														1				"R05 continuous recorder, 2X25Ahr LiFePO4 batteries, 2x20W PV, 12V to 3V controller"	0					ZZ22255			
DENA	Ruth Glacier	RUTH	2016	0	VERY HIGH	62.96668	-150.75175	1846	5.5		17	1.35	began season	04/26/2016	08/17/2016	"4/26/16, 5/14/16, 6/10/2016, 7/7/2016, 8/17/2016"														1				"LD 831 Sound Pressure Level Meter, 1/2"" free-field microphone, R05 continuous recorder, 2X25Ahr LiFePO4 batteries, 1X 55W PV, GV-5 #048786 solar controller, Davis Weather Array"	1	0.2	2649	19209	126202	FOE6875	"wind 17, T/RH 12   "		
DENA	Toe of the Tokositna	TOKO	2016	0	VERY HIGH	62.6642	-150.79088	261	5.5		16	1.16	began season	04/26/2016	06/24/2016	"4/26/16, 5/14/16, 6/10/2016, 7/7/2016"														1				"LD 831 Sound Pressure Level Meter, 1/2"" free-field microphone, R05 continuous recorder, 2X25Ahr LiFePO4 batteries, 1X 50W PV, GV-5 #048797 solar controller, Davis Weather Array"	1	11.5	2316	16961	118683	BZ64386	"wind 1, T/RH 13"		
DENA	Triple Lakes	TRLA	2016	0	LOW	63.66254	-148.87497	654	6.1		17	1.55	was DENAFRC3	07/18/2016		"7/18/2016, 8/2/2016, 8/8/2016"														0				"LD 831 Sound Pressure Level Meter, 1/2"" free-field microphone, R05 continuous recorder, 2X25Ahr LiFePO4 batteries, 2x20W PV, GV-5 #68482 solar controller, Davis Weather Array"	1	5.8	1663	15309	112337	ZZ22259	"wind 9, T/RH 14"		
GAAR	Anaktuvuk Pass	ANAK	2016	0	na	68.17046	-151.77304	926	5.9		8	1.05		07/31/2016		07/31/2016														1				"LD 831 Sound Pressure Level Meter, 1/2"" free-field microphone, R05 continuous recorder, 'black box' splitter, 2X25Ahr LiFePO4 batteries, GV-5 #068485 solar controller 2X 20W PV, Davis wind & direction sensors"		0.2	1716	15358	114175	AZ59630	wind 10/TRH 20		
KATM	American Creek	AMCR	2016	0	na	58.82051	-155.66612	58.2168	5.5		80	1.39	began season	06/21/2016		06/21/2016														1				"LD 831 Sound Pressure Level Meter, 1/2"" free-field microphone, R05 continuous recorder, 'blue box' splitter, 2X LiFePO4 battery pack, GV-5 solar controller 48795, 1X 20W PV, Davis wind & direction sensors"	1	9.7	2097	15302	116846	ZZ22098	"wind 25, T/RH 11"		
KATM	Douglas River	DORI	2016	0	na	58.98351	-153.53938	8	5.5		64	1.5	was KATMAMCR	07/29/2016		"7/29/16,"														1				"LD 831 Sound Pressure Level Meter, 1/2"" free-field microphone, R05 continuous recorder, 'blue box' splitter, 2X25Ahr LiFePO4 batteries, GV-5 #48795 solar controller 1X 20W PV, Davis wind & direction sensors"		277.6	2097	16961	118683	ZZ22098	"wind 25, T/RH 11"		
KATM	Dumpling Point	DUPO	2016	0	na	58.60343	-155.84497	77	6.8		30	1.48	was KATMHALO	07/30/2016		"7/30/16, "														1				"LD 831 Sound Pressure Level Meter, 1/2"" free-field microphone, R05 continuous recorder, 'blue box' splitter, 2X25Ahr LiFePO4 batteries, GV-5 #48798 solar controller 1X 20W PV, Davis wind & direction sensors"		305.2	1664	10133	LW34529	BZ63887	"wind 26, T/RH 5"		
KATM	Hallo Bay	HALO	2016	0	na	58.42707	-154.06105	1	6.5	6.5	80	1.57	began season	06/22/2016		06/22/2016														0				"LD 831 Sound Pressure Level Meter, 1/2"" free-field microphone, R05 continuous recorder, 'blue box' splitter, 2X LiFePO4 battery pack, GV-5 solar controller 48798, 1X 20W PV, Davis wind & direction sensors"	1	299.4	1664	10133	LW34529	BZ63887	"wind 26, T/RH 5"		
KATM	Jojo Lake	JOJO	2016	0	na	58.61685	-155.22643	18.5928	6.3		80	1.57	began season	06/21/2016		06/21/2016														1				"LD 831 Sound Pressure Level Meter, 1/2"" free-field microphone, R05 continuous recorder, 'blue box' splitter, 2X LiFePO4 battery pack, GV-5 solar controller 68491, 1X 20W PV, Davis wind & direction sensors"	1	334.2	1657	12208	108783	BZ64461	"wind 24, T/RH 22"		
KATM	Katmai Bay	KABA	2016	0	na	58.02355	-154.90401	1	6.3		63	1.46	was KATMJOJO	07/28/2016		"7/28/16,"														1				"LD 831 Sound Pressure Level Meter, 1/2"" free-field microphone, R05 continuous recorder, 'blue box' splitter, 2X25Ahr LiFePO4 batteries, GV-5 #68491 solar controller 1X 20W PV, Davis wind & direction sensors"		326.8	1657	12208	108783	BZ64461	"wind 24, T/RH 22"		
SITK	Totem Trail	TOTR	2016	1	na	57.046	-135.317	3	5.7		20	2	began season	08/16/2016			1													1					1		1448	12518	106038	BZ63485	"wind 18, T/RH 27"		
WRST	Black Mountain	BLMT	2016	1	na	62.40306	-143.6649	962	5.7		15	1.2	began season	02/21/2016		02/21/2016														1				"LD 831 Sound Pressure Level Meter, 1/2"" free-field microphone, R05 continuous recorder, 2X25Ahr LiFePO4 batteries, 1x62 W PV, GV-5 48785 solar controller, Davis Weather Array"	1	0.3	2041	15303	112827	FOE6844	"wind 7, T/RH 21"		
WRST	Cooper Creek	COPA	2016	1	na	62.42221	-142.63455	714	5.6		37	1.23	began season	02/19/2016		02/19/2016														1				"LD 831 Sound Pressure Level Meter, 1/2"" free-field microphone, R05 continuous recorder, 2X25Ahr LiFePO4 batteries, 1x62 W PV, GV-5 48785 solar controller, Davis Weather Array"	1	231.2	1718	12517	109570	AZ43554	"wind 14, T/RH 24"		
WRST	Nizina Chitistone Confluence	NIZI	2016	1	na	61.4466	-142.59077	546	5.5		14		began season	02/16/2016		02/16/2016														1				"LD 831 Sound Pressure Level Meter, 1/2"" free-field microphone, R05 continuous recorder, 2X25Ahr LiFePO4 batteries, 1x62 W PV, GV-5 48785 solar controller, Davis Weather Array"	1	0.1	1447	19211	125976	BZ64387	"wind 6, T/RH 1"		
WRST	Tanada Lake	TALA	2016	1	na	62.36744	-143.35172	903	5.6		8	1.17	began season	02/21/2016		02/21/2016														1				"LD 831 Sound Pressure Level Meter, 1/2"" free-field microphone, R05 continuous recorder, 2X25Ahr LiFePO4 batteries, 2x20 W PV, GV-5 48791 solar controller, Davis Weather Array"	1	302.4	1716	12490	LW136190	AZ59630	"wind 5, T/RH 10"		
DENA	Caribou Creek	CARB	2017	0	MEDIUM	63.6064	-150.83133	578	6.9		7	1.245	began season	06/21/2017	08/08/2017	"6/21/17, 7/20/17"																		"LD 831 Sound Pressure Level Meter, 1/2"" free-field microphone, R05 continuous recorder, 2X Li-Ion Polymer batteries, 1X 62 W PV, LIND solar controller, Davis Weather Array"	1	337	1995	16969	118764	BZ63887	"wind 28, T/RH 16"		
DENA	Cathedral Mountain	CATH	2017	0	LOW	63.57475	-149.61162	1173	5.5		7	1.38	began season	07/17/2017	09/07/2017	"7/17/17,"																		"LD 831 Sound Pressure Level Meter, 1/2"" free-field microphone, R05 continuous recorder, 2X25Ahr LiFePO4 batteries, 1x42W PV, GV-5 #48786 solar controller, Davis Weather Array"	1	342.4	2107	10092	126172	BZ64386	"wind UNK, T/RH 8"		
DENA	Horseshoe Lake Trail	FRC4	2017	0	FRONTCOUNTRY	63.73853	-148.9119	534	6.2		48	1.09		08/05/2017	08/26/2017																				1	0.4							
DENA	Denali Visitor's Center	FRC5	2017	0	FRONTCOUNTRY																																						
DENA	Healy Overlook Trail	FRC6	2017	0	FRONTCOUNTRY	63.73597	-148.94116	665	12.7		46	1.25																							1	9.8							
DENA	Murie Science and Learning Center	FRC8	2017	0	FRONTCOUNTRY																																						
DENA	HQ Phenology Site	PHEN	2017	0	FRONTCOUNTRY																																						
DENA	Toe of the Ruth Glacier	RUGL	2017	0	VERY HIGH	62.70353	-150.51894	624	5.5		15		began season	05/02/2017	08/24/2017	"5/2/2017, 5/30/2017"																		"LD 831 Sound Pressure Level Meter, 1/2"" free-field microphone, R05 continuous recorder, 2X25Ahr LiFePO4 batteries, 1X 55W PV, GV-5 solar controller 68487, Davis Weather Array"	1	0.1	1447	16961	118683	BZ64461	"wind 20, T/RH 10"		
DENA	Toe of the Tokositna	TOKO	2017	0	VERY HIGH	62.6642	-150.79088	261	7		15		began season	05/02/2017	07/14/2017	"5/2/2017, 5/30/2017"																		"LD 831 Sound Pressure Level Meter, 1/2"" free-field microphone, R05 continuous recorder, 2X25Ahr LiFePO4 batteries, 1X 48W PV, GV-5 solar controller 48791, Davis Weather Array"	1	"10.9, 0.1"	2040	16962	118693	BZ64633	"wind 1, T/RH 13"		
DENA	Triple Lakes	TRLA	2017	0	LOW	63.6626	-148.87492		11.4		40	1.29	began season	06/20/2017	08/24/2017	"6/20/17,"																		"LD 831 Sound Pressure Level Meter, 1/2"" free-field microphone, R05 continuous recorder, 2X Li-Ion Polymer batteries, 1X 42 W PV, LIND solar controller, Davis Weather Array"	1	0.2	1716	12490	LW136190	BZ64387	"wind 31, T/RH 20"		
DENA	Upper West Branch Toklat	UWBT	2017	0	LOW	63.40901	-150.03508	1237	6.5		43	1.34		07/31/2017	08/26/2017																			"LD 831 Sound Pressure Level Meter, 1/2"" free-field microphone, R05 continuous recorder, 'blue box' splitter, 2X25Ahr LiFePO4 batteries, GV-5 #68485 solar controller 1X 20W PV, Davis wind & direction sensors"	1	35.2	1718	12517	109570	ZZ2255	wind 14/ T/RH 15		
GAAR	Kurupa Lake	KURU	2017	0	na	68.37033	-154.67577	936	5.8		14		began season	05/12/2017	05/30/2017	05/12/2017																		"LD 831 Sound Pressure Level Meter, 1/2"" free-field microphone, R05 continuous recorder, 3X25Ahr LiFePO4 batteries, 1X 62W PV, GV-5 solar controller 48801, Davis Weather Array"		232.6	2041	15259	111479	FOE6840	"wind 14, T/RH 25"		
KATM	Amalik Bay	AMBA	2017	0	na	58.10639	-154.60167	13	5.5				was KATMEKUL	07/29/2017	08/12/2017																												
KATM	Crosswinds Lake	CROS	2017	0	na	59.20414	-154.97101	294	14.3		80	1.48	was KATMSAVO	07/28/2017	08/26/2017																												
KATM	East Kulik Lake	EKUL	2017	0	na	58.8965	-154.80084	201					began season	07/06/2017	07/21/2017	"7/6/2017, "																		"LD 831 Sound Pressure Level Meter, 1/2"" free-field microphone, R05 continuous recorder, 'blue box' splitter, 2X25Ahr LiFePO4 batteries, GV-5 #68485 solar controller 1X 20W PV, Davis wind & direction sensors"	1		2097	15358	114175	ZZ22259	"wind 24, T/RH 22"		
KATM	Kamishak River	KAMI	2017	0	na	58.99634	-154.15538	13	6.2		80	1.53	"was KATMTACT, SLM lost"	07/28/2017	08/21/2017																												
KATM	Lake Camp	LACA	2017	0	na																																						
KATM	Savonoski Lake	SAVO	2017	0	na	58.59578	-154.75061	84	6.9		80	1.47	began season	06/27/2017	07/24/2017	"6/27/2017,"																		"LD 831 Sound Pressure Level Meter, 1/2"" free-field microphone, R05 continuous recorder, 'blue box' splitter, 2X25Ahr LiFePO4 batteries, GV-5 #68482 solar controller 1X 20W PV, Davis wind & direction sensors"	1	359.9	1664	10133	LW134529	ZZ22098	"wind 25, T/RH 5"		
KATM	Contact Lake	TACT	2017	0	na	58.208	-155.96103	178	5.6		80	1.17	began season	06/27/2017	07/26/2017	"6/27/2017, "																		"LD 831 Sound Pressure Level Meter, 1/2"" free-field microphone, R05 continuous recorder, 'blue box' splitter, 2X25Ahr LiFePO4 batteries, GV-5 #48795 solar controller 1X 20W PV, Davis wind & direction sensors"	1	0.3	1657	12208	108783	AZ43554			
KEFJ	Visitor Facilities Zone	1	2017	0	na	60.18812	-149.6312	132.8			11	1.31	was KEFJ0062017	06/14/2017		"6/14/2017,"																		"LD 831 Sound Pressure Level Meter, 1/2"" free-field microphone, R05 continuous recorder, 2X25Ahr LiFePO4 batteries, 2x20W PV, GV-5 #68491 solar controller, Davis Weather Array"	1	0.2	2316	19212	125968	AZ59630	"wind 17, T/RH 19"		
KEFJ	Hiker Zone	2	2017	0	na	60.18361	-149.66437	632.46	5.6		20	1.36	was KEFJ0052017																					"LD 831 Sound Pressure Level Meter, 1/2"" free-field microphone, R05 continuous recorder, 2X25Ahr LiFePO4 batteries, 2x20W PV, GV-5 #48798 solar controller, Davis Weather Array"	1	0.3	2317	16959	118266	F0E6875	"wind 9, T/RH 14"		
KEFJ	Visitor Facilities Zone	5	2017	1	na	60.1894345	-149.6225665	125.59	5.5		15	1.25	began season	03/01/2017																				"LD 831 Sound Pressure Level Meter, 1/2"" free-field microphone, R05 continuous recorder, 2X25Ahr LiFePO4 batteries, 2x20W PV, GV-5 #48798 solar controller, Davis Weather Array"	1	112.4	2317	16959	118266	F0E6875	"wind 9, T/RH 14"		
KEFJ	Pedestrian Zone	6	2017	1	na	60.18232243	-149.6425511	184	5.5		11	1.4	began season	03/01/2017																				"LD 831 Sound Pressure Level Meter, 1/2"" free-field microphone, R05 continuous recorder, 2X25Ahr LiFePO4 batteries, 2x20W PV, GV-5 #68491 solar controller, Davis Weather Array"	1	0.2	2316	19212	125968	AZ59630	"wind 17, T/RH 19"		
WRST	Black Mountain	BLMT	2017	1	na	62.40306	-143.6649	962	5.5		45	1.2	continued from 2016																														
WRST	Cooper Creek	COPA	2017	1	na	62.42221	-142.63455	714	5.5			1.3		03/07/2017																				"LD 831 Sound Pressure Level Meter, 1/2"" free-field microphone, R05 continuous recorder, 2X25Ahr LiFePO4 batteries, 2x20W PV, GV-5 #68482 solar controller, Davis Weather Array"	1	0.2	1716	12490	LW136190	ZZ22255	"wind 4, T/RH 17"		
YUCH	Three Fingers Airstrip	THRF	2017	0	na	64.57598	-143.24371	988	6.1		16	1.26	began season	06/08/2017		"6/8/2017, "																		"LD 831 Sound Pressure Level Meter, 1/2"" free-field microphone, R05 continuous recorder, 2X20Ahr LiFePO4 batteries, 1X 42W PV, GV-5 solar controller 48797, Davis Weather Array"	1	33.7	1663	15309	112337	H8F0168	"wind 29, T/RH 12"		
DENA	Fang Mountain	FANG	2018	0	LOW	63.56616	-149.20561	1522	5.9		16	1.37	began season	06/28/2018		"6/28/2018,7/24/2018"																		"LD 831 Sound Pressure Level Meter, 1/2"" free-field microphone, R05 continuous recorder, 'black box' splitter, 2 LiPoly batteries, Lind solar controller, 1X 42W PV, Davis wind & direction sensors"		0.5	2649	15303	112827	H8F0168	"wind 2, T/RH 4"		
DENA	Kahiltna Pass	KAHP	2018	0	LOW	63.07562	-151.17441	3067	6.2		26	1.4	began season	05/25/2018		"5/25/2018,"																		"LD 831 Sound Pressure Level Meter, 1/2"" free-field microphone, R05 continuous recorder, 2X25Ahr LiFePO4 batteries, 1x42W PV, GV-5 solar controller, Davis Weather Array"	1	0.4	2040	16962	115061	H1G2474	"wind 31, T/RH 19"		
DENA	McKinley Bar Trail	MBAR	2018	0	LOW	63.4067	-150.83572	625	5.5			1.38	began season	08/03/2018		"8/3/18,"																		"LD 831 Sound Pressure Level Meter, 1/2"" free-field microphone, R05 continuous recorder, 'black box' splitter, 2 LiPoly batteries, Lind solar controller, 1X 62W PV, Davis wind & direction sensors"	1	180.2	2346	21296	128879	BZ63887	"wind 14, T/RH 3"		
DENA	Moose Creek	MOOS	2018	0	MEDIUM	63.51452	-150.84167	580	6.5		48	1.8	began season	07/18/2018		"7/18/2018,"																		"LD 831 Sound Pressure Level Meter, 1/2"" free-field microphone, R05 continuous recorder, 'black box' splitter, 2 LiPoly batteries, Lind solar controller, 1X 42W PV, Davis wind & direction sensors"	1	0.1	1995	16969	118764	AZ59630	"wind 9, T/RH 12"		
DENA	Sushana Ridge	SUSH	2018	0	LOW	63.74121	-149.58357	1221	5.5			1.34	began season	05/14/2018		"5/14/2018, 6/15/2018"																		"LD 831 Sound Pressure Level Meter, 1/2"" free-field microphone, R05 continuous recorder, 2X25Ahr LiFePO4 batteries, 1x42W PV, GV-5 #091938 solar controller, Davis Weather Array"		0.2	2346	21296	128879	bz63887	"wind 14, T/RH 26"		
DENA	Toe of the Tokositna	TOKO	2018	0	VERY HIGH	62.66444	-150.79085	265	5.5		16	1.36	began season	05/24/2018		"5/24/2018,"																		"LD 831 Sound Pressure Level Meter, 1/2"" free-field microphone, R05 continuous recorder, 2X25Ahr LiFePO4 batteries, 1x42W PV, GV-5 #048786 solar controller, Davis Weather Array"		335.7	1447	16961	118683	H9F1079	"wind 32, T/RH 23"		
DENA	Triple Lakes	TRLA	2018	0	LOW	63.66256	-148.87491	657	5.6		46	1.22	began season	07/03/2018		"7/3/2018,"																		"LD 831 Sound Pressure Level Meter, 1/2"" free-field microphone, R05 continuous recorder, 2X25Ahr LiFePO4 batteries, 1x42W PV, GV-5 #091939 solar controller, Davis Weather Array"	1	0.3	2097	115358	114175	H7G6027	"wind 5, T/RH 9"		
GAAR	Arrigetch Basin	ARRI	2018	0	na	67.43607	-154.11913	874	6.4		16	1.27	began season	06/07/2018		"6/7/2018,"																											
GAAR	Florence Creek Lake	FLOR	2018	0	na	67.13968	-150.87558	255	5.5		17		began season	06/06/2018		"6/6/2018, "																											
GAAR	Upper Noatak River	UPNO	2018	0	na	67.66647	-155.55545	543	5.6		14	1.4	began season	06/06/2018		"6/6/2018, "																											
KEFJ	Pedestrian Zone	3	2018	0	na	60.18228	-149.6423	173.6	5.5			1.33		06/20/2018		"6/20/2018,"																		"LD 831 Sound Pressure Level Meter, 1/2"" free-field microphone, R05 continuous recorder, 'black box' splitter, 2X25Ahr LiFePO4 batteries, GV-5 solar controller, 2X 20W PV, Davis wind & direction sensors"		359.9	2041	19209	126202	F0E6844	"wind 28, T/RH 1"		
KEFJ	Semi-Primitive Zone	4	2018	0	na	60.19995	-149.603433	104	5.5			1.57		06/29/2018		"6/29/2018,"																		"LD 831 Sound Pressure Level Meter, 1/2"" free-field microphone, R05 continuous recorder, 'black box' splitter, 2X25Ahr LiFePO4 batteries, GV-5 solar controller, 2X 20W PV, Davis wind & direction sensors"		238.5	2317	16959	118266	BZ64633	"wind 4, T/RH 10"		
LACL	Chinitna Bay	CHBA	2018	0	na	59.86715	-153.1187	3	6		17	1.56	began season	06/20/2018		"6/20/2018, "																		"LD 831 Sound Pressure Level Meter, 1/2"" free-field microphone, R05 continuous recorder, 'black box' splitter, 2X25Ahr LiFePO4 batteries, GV-5 solar controller, 1X 20W PV, Davis wind & direction sensors"		342.1	1663	15309	112337	H0H8275	"wind 29, T/RH 20"		
LACL	Cresent Lake	CRES	2018	0	na	60.358672	-152.859107	91			17	1.44	was LACLKOLA	08/27/2018		"8/27/2018,"																		"LD 831 Sound Pressure Level Meter, 1/2"" free-field microphone, R05 continuous recorder, 'black box' splitter, 2X25Ahr LiFePO4 batteries, GV-5 solar controller, 1X 20W PV, Davis wind & direction sensors"		0.6	2316	19212	125968	H2G3035	"wind 33, T/RH 16"		
LACL	Hanmore Lake	HANM	2018	0	na	60.09939	-154.92592	128	6		17	1.38	was LACLCHBA	07/24/2018		"7/24/2018,"																		"LD 831 Sound Pressure Level Meter, 1/2"" free-field microphone, R05 continuous recorder, 'black box' splitter, 2X25Ahr LiFePO4 batteries, GV-5 solar controller, 1X 20W PV, Davis wind & direction sensors"		0	1663	15309	112337	H0H8275	"wind 29, T/RH 20"		
LACL	Kijik Lake	KIJK	2018	0	na	60.30791	-154.28777	110	6.6		17	1.36	began season	06/19/2018		"6/19/2018,"																		"LD 831 Sound Pressure Level Meter, 1/2"" free-field microphone, R05 continuous recorder, 'black box' splitter, 2X25Ahr LiFePO4 batteries, GV-5 solar controller, 1X 20W PV, Davis wind & direction sensors"		3.8	1664	10133	LW134529	BZ64461	"wind 6, T/RH 13"		
LACL	Kontrashibuna Lake	KOLA	2018	0	na	60.1819	-154.24837	155	5.5		17	1.35	began season	06/18/2018		"6/18/2018, "																		"LD 831 Sound Pressure Level Meter, 1/2"" free-field microphone, R05 continuous recorder, 'black box' splitter, 2X25Ahr LiFePO4 batteries, GV-5 solar controller, 1X 20W PV, Davis wind & direction sensors"		35.1	2316	19212	125968	H2G3035	"wind 33, T/RH 16"		
LACL	Upper Twin Lake	UPTW	2018	0	na	60.64553	-153.82079	607	6		17	1.48	was LACLKIJI	07/24/2018		"7/24/2018,"																		"LD 831 Sound Pressure Level Meter, 1/2"" free-field microphone, R05 continuous recorder, 'black box' splitter, 2X25Ahr LiFePO4 batteries, GV-5 solar controller, 1X 20W PV, Davis wind & direction sensors"		3.8	1664	10133	LW134529	BZ64461	"wind 6, T/RH 13"		
SITK	Sawmill Creek Road	SACR	2018	0	na	57.04971444	-135.3155556	15.1			17	1.6	was SITKTOTR	03/23/2018		"3/23/2018, "																											
DENA	Bull River	BULL	2019	0	LOW	63.39195	-149.62897	1063.5	6.2		80	1.3	began season	07/14/2019		"7/14/2019, "																		"LD 831 Sound Pressure Level Meter, 1/2"" free-field microphone, R05 continuous recorder, 'blue box' splitter 13, 1x LiPoly batteries, 1x 3.4V 40 Ahr,  Lind solar controller, 1X 42W PV, Davis Weather Array"	1	344.2	1718	12517	109570	BZ63485	"wind 33, T/RH ?"		
DENA	Carlson Creek	CARL	2019	0	LOW	63.24202	-150.83598	1348.7	5.7		27	1.3	was NTRL	08/02/2019		"8/2/2019,"																		"LD 831 Sound Pressure Level Meter, 1/2"" free-field microphone, R05 continuous recorder, 'blue box' splitter 13, 1x LiPoly batteries, 1x 3.4V 40 Ahr,  Lind solar controller, 1X 42W PV, Davis Weather Array"	1	340.8	1996	15261	111502	AZ59630	"wind 34, T/RH 22"		
DENA	Hogan Creek 4	HOG4	2019	0	ROAD	63.72279	-149.42563																																				
DENA	North Triple Lakes Trail	NTRL	2019	0	LOW	63.72395	-148.9173	534	5.5		80	1.39	began season	06/18/2019		                                                               																		"LD 831 Sound Pressure Level Meter, 1/2"" free-field microphone, R05 continuous recorder, 'blue box' splitter 16, 1x 12.8V 25Ahr LiFePO4 battery, 1x 3.4V 40 Ahr, GV-5 solar controller 91653, 2X 20W PV, Davis wind speed & direction sensors"	1	240.2	1996	15261	111502	H8F0168	wind 4		"7/30 switched solar panels to 1X 42W PV because previous panels were not working. Switched SLM to low noise SLM #13 with new mic/preamp, new wind offset 238.2, mic line input 60 (switch done to move previous SLM to CARL)"
DENA	Savage River	PRM3	2019	0	ROAD	63.733391	-14930995																																				
DENA	Primrose Ridge	PRM4	2019	0	ROAD	63.73044	-149.35201																																				
DENA	Ruth Glacier	RUTH	2019	0	VERY HIGH	62.96653	-150.75203	1725	5.7		80	1.45	began season	05/19/2019		"5/19/2019, 6/22/2019, 7/21/2019"																		"LD 831 Sound Pressure Level Meter, 1/2"" free-field microphone, R05 continuous recorder, 'blue box' splitter 2, 1x 12.8V 25Ahr LiFePO4 battery, 1x 3.4V 40 Ahr, GV-5 solar controller 91927, 1X 20W PV, Davis wind speed & direction sensors"	1	0.3	1716	12490	LW136190	D2C5176	wind 5		
DENA	Sanctuary Flats	SAN4	2019	0	ROAD	63.72854	-149.45207																																				
DENA	Teklanika Flats	TEK4	2019	0	ROAD	63.69844	-149.55922																																				
DENA	Toe of the Tokositna	TOKO	2019	0	VERY HIGH	62.66441	-150.79089	260	6.9		"80, 7/21/2019 switched to mic line w input 80"	1.27	began season	05/19/2019		"5/19/2019, 6/22/2019, 7/21/2019"																		"LD 831 Sound Pressure Level Meter, 1/2"" free-field microphone, R05 continuous recorder, 'blue box' splitter 3, 1x 12.8V 25Ahr LiFePO4 battery, 1x 3.4V 40 Ahr, GV-5 solar controller 48797, 1X 20W PV, Davis wind speed & direction sensors"	1	0.4	1995	"16969, 15358"	"118764, 114175"	F0E6840	wind 21		
DENA	Triple Lakes	TRLA	2019	0	LOW	63.66258	-148.87505	657	5.5		80	1.28	began season	06/25/2019		"6/25/2019, "																		"LD 831 Sound Pressure Level Meter, 1/2"" free-field microphone, R05 continuous recorder, 'blue box' splitter 16, 1x 12.8V 25Ahr LiFePO4 battery, 1x 3.4V 40 Ahr, GV-5 solar controller 48792, 2X 20W PV, Davis wind speed & direction sensors"	1	43.9	2346	21296	128879	BZ63887	wind 25		7/29 switched solar panels to 1X 42W PV because previous panels were not working. 
DENA	Upper Tokositna	UTOK	2019	0	VERY HIGH	62.88133	-150.88087	986	5.5		"80, 7/21/2019 switched to mic line w input 68"	1.23	began season	05/19/2019		"5/19/2019, 6/22/2019, 7/21/2019"																		"LD 831 Sound Pressure Level Meter, 1/2"" free-field microphone, R05 continuous recorder, 'blue box' splitter 1, 1x 12.8V 25Ahr LiFePO4 battery, 1x 3.4V 40 Ahr, GV-5 solar controller 91648, 1X 20W PV, Davis wind speed & direction sensors"	1	0.8	1448	12518	106038	ZZ22259	"wind 28, T/RH 1"		
GAAR	Itkillik Lake	ITKI	2019	0	na	68.39362	-149.91618	686	5.6		80		began season	06/14/2019		"6/14/2019,"																		"LD 831 Sound Pressure Level Meter, 1/2"" free-field microphone, R05 continuous recorder, 'blue box' splitter 3, 1x 12.8V 25Ahr LiFePO4 battery, 1x 3.4V 40 Ahr, Davis wind speed & direction sensors"	1	39.2	2759	16922	170761	ZZ22255	wind 28		
GAAR	Pamitchtuk Lake	PALA	2019	0	na	67.7645	-152.22928	565	5.5		80	1.28	began season	06/14/2019		"6/14/2019, "																		"LD 831 Sound Pressure Level Meter, 1/2"" free-field microphone, R05 continuous recorder, 'blue box' splitter 3, 1x 12.8V 25Ahr LiFePO4 battery, 1x 3.4V 40 Ahr, GV-5 solar controller 48786, 1X 42W folding PV, Davis wind speed & direction sensors"	1	36.7	2649	15303	112827	F0E6844			
LACL	Crystal Creek	CRYS	2019	0	na	61.5048	-153.00426	1315	5.8		20	1.32																						"LD 831 Sound Pressure Level Meter, 1/2"" free-field microphone, R05 continuous recorder, 'blue box' splitter 15, 1x 12.8V 25Ahr LiFePO4 battery, 1x 3.4V 40 Ahr, GV-5 solar controller 68482, 1X 42W folding PV, Davis wind speed & direction sensors"	1	359.9	2317	16959	308456	ZZ20610			
LACL	Hanmore Lake	HANM	2019	1	na	60.09938	-154.92592	440			20	1.39																						"LD 831 Sound Pressure Level Meter, 1/2"" free-field microphone, R05 continuous recorder, 'black box'  27, 1x 12.8V 25Ahr LiFePO4 battery, 1x 3.4V 40 Ahr, GV-5 solar controller 68482, 1X 42W folding PV, Davis wind speed & direction sensors"	1		1663	15309	112337	H0H8275			
LACL	Lake Clark Pass	LACP	2019	0	na	60.81785	-152.7267	176	6		26	1.58	began season	06/26/2019		"6/26/2019,"																		"LD 831 Sound Pressure Level Meter, 1/2"" free-field microphone, R05 continuous recorder, 'blue box' splitter 16, 1x 12.8V 25Ahr LiFePO4 battery, 1x 3.4V 40 Ahr, GV-5 solar controller 48790, 1X 20W PV, Davis wind speed & direction sensors"	1	359.9	2316	19212	125968	BZ64633	wind 7		
LACL	Merrill Pass	MEPA	2019	0	na	61.21243	-153.55003	429	6.1		24	1.58	began season	06/26/2019		"6/26/2019,"																		"LD 831 Sound Pressure Level Meter, 1/2"" free-field microphone, R05 continuous recorder, 'blue box' splitter 16, 1x 12.8V 25Ahr LiFePO4 battery, 1x 3.4V 40 Ahr, GV-5 solar controller 68487, 1X 20W PV, Davis wind speed & direction sensors"	1	0.4	2040	16962	115061	BZ64387	wind 14		
LACL	Silver Salmon Creek	SISA	2019	0	na	59.97543	-152.67128	10	5.5		22	1.58	began season	06/27/2019		"6/27/2019,"																		"LD 831 Sound Pressure Level Meter, 1/2"" free-field microphone, R05 continuous recorder, 'blue box' splitter 13, 1x 12.8V 25Ahr LiFePO4 battery, 1x 3.4V 40 Ahr, GV-5 solar controller 48791, 1X 20W PV, Davis wind speed & direction sensors"	1	0.4	2107	10092	126172	ZZ22098	wind unnumbered		
LACL	Snipe Lake	SNLA	2019	0	na	60.61261	-154.30829	575	5.2		23	1.24																						"LD 831 Sound Pressure Level Meter, 1/2"" free-field microphone, R05 continuous recorder, 'blue box' splitter 12, 1x 12.8V 25Ahr LiFePO4 battery, 1x 3.4V 40 Ahr, GV-5 solar controller 68491, 1X 20W PV, Davis wind speed & direction sensors"	1	359.9	2041	19209	126202		wind 7		
LACL	Telaquana Lake	TELA	2019	0	na	60.96055	-153.84087	375	5.2		23	1.43	began season	06/25/2019		"6/25/2019,"																		"LD 831 Sound Pressure Level Meter, 1/2"" free-field microphone, R05 continuous recorder, 'blue box' splitter 16, 1x 12.8V 25Ahr LiFePO4 battery, 1x 3.4V 40 Ahr, GV-5 solar controller 68491, 1X 20W PV, Davis wind speed & direction sensors"	1	5.7	2041	19209	126202	F0E6875	wind 11		
DENA	Savage River	PRM3	2020	0	ROAD								began season																														
DENA	Primrose Ridge	PRM4	2020	0	ROAD								began season																														
